[
  {
    "Business ID": "x0k5kFArHLijdY8-NEQ7Xg",
    "Name": "Bengal Tiger Indian Food",
    "Address": "58 W 56th St",
    "Coordinates": {
      "Latitude": 40.763167,
      "Longitude": -73.977131
    },
    "Number of Reviews": 2331,
    "Rating": 4.5,
    "Zip Code": "10019",
    "CuisineType": {
      "S": "indian"
    },
    "InsertedAtTimestamp": {
      "N": "1697590581.698374"
    }
  },
  {
    "Business ID": "z2VXX7wGl8XZ6_oo9W3koA",
    "Name": "Patiala Indian Grill",
    "Address": "371 W 34th St",
    "Coordinates": {
      "Latitude": 40.7534700430117,
      "Longitude": -73.99595067259492
    },
    "Number of Reviews": 624,
    "Rating": 4.5,
    "Zip Code": "10001",
    "CuisineType": {
      "S": "indian"
    },
    "InsertedAtTimestamp": {
      "N": "1697590581.698483"
    }
  },
  {
    "Business ID": "Xqk91WuhMeYS4pedccUYgA",
    "Name": "Gazab",
    "Address": "179 Essex St",
    "Coordinates": {
      "Latitude": 40.72191,
      "Longitude": -73.98666
    },
    "Number of Reviews": 255,
    "Rating": 4.5,
    "Zip Code": "10002",
    "CuisineType": {
      "S": "indian"
    },
    "InsertedAtTimestamp": {
      "N": "1697590581.698532"
    }
  },
  {
    "Business ID": "jSMfV_e4Jh1DKoCnngOiQQ",
    "Name": "Gulaabo",
    "Address": "250 W 47th St",
    "Coordinates": {
      "Latitude": 40.759859,
      "Longitude": -73.986707
    },
    "Number of Reviews": 18,
    "Rating": 4.5,
    "Zip Code": "10036",
    "CuisineType": {
      "S": "indian"
    },
    "InsertedAtTimestamp": {
      "N": "1697590581.698567"
    }
  },
  {
    "Business ID": "ut-560tVcs2g-ZU0Y_qqHQ",
    "Name": "Saar Indian Bistro",
    "Address": "241 W 51st St",
    "Coordinates": {
      "Latitude": 40.7626659,
      "Longitude": -73.9847093
    },
    "Number of Reviews": 397,
    "Rating": 4.5,
    "Zip Code": "10019",
    "CuisineType": {
      "S": "indian"
    },
    "InsertedAtTimestamp": {
      "N": "1697590581.698604"
    }
  },
  {
    "Business ID": "objNX6cuj1JyUijFjw21Qw",
    "Name": "Bombay Bistro",
    "Address": "31 Cornelia St",
    "Coordinates": {
      "Latitude": 40.73136,
      "Longitude": -74.00253
    },
    "Number of Reviews": 277,
    "Rating": 4.5,
    "Zip Code": "10014",
    "CuisineType": {
      "S": "indian"
    },
    "InsertedAtTimestamp": {
      "N": "1697590581.698635"
    }
  },
  {
    "Business ID": "1_pK5aQ47atF50oAKHADhA",
    "Name": "Indian Accent",
    "Address": "123 W 56th St",
    "Coordinates": {
      "Latitude": 40.7643344624229,
      "Longitude": -73.9787312885132
    },
    "Number of Reviews": 717,
    "Rating": 4.5,
    "Zip Code": "10019",
    "CuisineType": {
      "S": "indian"
    },
    "InsertedAtTimestamp": {
      "N": "1697590581.698665"
    }
  },
  {
    "Business ID": "m5Whyz8O8jM4DrE808h71g",
    "Name": "Darbar Grill",
    "Address": "157 E 55th St",
    "Coordinates": {
      "Latitude": 40.759357,
      "Longitude": -73.968826
    },
    "Number of Reviews": 588,
    "Rating": 4.0,
    "Zip Code": "10022",
    "CuisineType": {
      "S": "indian"
    },
    "InsertedAtTimestamp": {
      "N": "1697590581.698703"
    }
  },
  {
    "Business ID": "QqrEF8_ZQCGi63cL10J5oA",
    "Name": "Chola",
    "Address": "232 E 58th St",
    "Coordinates": {
      "Latitude": 40.76016,
      "Longitude": -73.96582
    },
    "Number of Reviews": 675,
    "Rating": 4.0,
    "Zip Code": "10022",
    "CuisineType": {
      "S": "indian"
    },
    "InsertedAtTimestamp": {
      "N": "1697590581.698745"
    }
  },
  {
    "Business ID": "HEs6llkn3wIP1ATXeIZQew",
    "Name": "Pippali",
    "Address": "129 E 27th St",
    "Coordinates": {
      "Latitude": 40.74233,
      "Longitude": -73.98331
    },
    "Number of Reviews": 897,
    "Rating": 4.0,
    "Zip Code": "10016",
    "CuisineType": {
      "S": "indian"
    },
    "InsertedAtTimestamp": {
      "N": "1697590581.698777"
    }
  },
  {
    "Business ID": "9pMhRYYgV7E9L7pzECtJKA",
    "Name": "The Drunken Munkey - UES",
    "Address": "338 E 92nd St",
    "Coordinates": {
      "Latitude": 40.78098,
      "Longitude": -73.94751
    },
    "Number of Reviews": 1352,
    "Rating": 4.5,
    "Zip Code": "10128",
    "CuisineType": {
      "S": "indian"
    },
    "InsertedAtTimestamp": {
      "N": "1697590581.698811"
    }
  },
  {
    "Business ID": "jf3JRaxUYU93x8LFU-8gkA",
    "Name": "GupShup",
    "Address": "115 E18th St",
    "Coordinates": {
      "Latitude": 40.7368323318866,
      "Longitude": -73.9877132715179
    },
    "Number of Reviews": 690,
    "Rating": 4.0,
    "Zip Code": "10003",
    "CuisineType": {
      "S": "indian"
    },
    "InsertedAtTimestamp": {
      "N": "1697590581.698834"
    }
  },
  {
    "Business ID": "ZikqL-flwV2XYlKtL2UfmA",
    "Name": "Rangoli Exquisite Indian Cuisine",
    "Address": "1393 A 2nd Ave",
    "Coordinates": {
      "Latitude": 40.7693,
      "Longitude": -73.95823
    },
    "Number of Reviews": 513,
    "Rating": 4.5,
    "Zip Code": "10021",
    "CuisineType": {
      "S": "indian"
    },
    "InsertedAtTimestamp": {
      "N": "1697590581.698857"
    }
  },
  {
    "Business ID": "kS2CP48K66yL2TwIhUqy_A",
    "Name": "Tamarind",
    "Address": "99 Hudson St",
    "Coordinates": {
      "Latitude": 40.71909,
      "Longitude": -74.00892
    },
    "Number of Reviews": 1133,
    "Rating": 4.0,
    "Zip Code": "10013",
    "CuisineType": {
      "S": "indian"
    },
    "InsertedAtTimestamp": {
      "N": "1697590581.698881"
    }
  },
  {
    "Business ID": "jYhbUh1TV7SCfPxjIhVpcg",
    "Name": "Baar Baar",
    "Address": "13 E 1st St",
    "Coordinates": {
      "Latitude": 40.7244378855031,
      "Longitude": -73.9915524
    },
    "Number of Reviews": 1238,
    "Rating": 4.0,
    "Zip Code": "10003",
    "CuisineType": {
      "S": "indian"
    },
    "InsertedAtTimestamp": {
      "N": "1697590581.698904"
    }
  },
  {
    "Business ID": "XLEdQl5s1bO5Iu43W_c96Q",
    "Name": "Muna",
    "Address": "152 East 46th St",
    "Coordinates": {
      "Latitude": 40.753509,
      "Longitude": -73.973515
    },
    "Number of Reviews": 41,
    "Rating": 4.5,
    "Zip Code": "10017",
    "CuisineType": {
      "S": "indian"
    },
    "InsertedAtTimestamp": {
      "N": "1697590581.698934"
    }
  },
  {
    "Business ID": "7VIUu8ay754GoUYEpsmxOA",
    "Name": "Jazba",
    "Address": "207 2nd Ave",
    "Coordinates": {
      "Latitude": 40.731701,
      "Longitude": -73.98585
    },
    "Number of Reviews": 14,
    "Rating": 5.0,
    "Zip Code": "10003",
    "CuisineType": {
      "S": "indian"
    },
    "InsertedAtTimestamp": {
      "N": "1697590581.699042"
    }
  },
  {
    "Business ID": "_7BGw3YFNOTzP1Www3zB7g",
    "Name": "Mughlai Grill",
    "Address": "6 Clinton St",
    "Coordinates": {
      "Latitude": 40.7210905,
      "Longitude": -73.9840446
    },
    "Number of Reviews": 531,
    "Rating": 4.5,
    "Zip Code": "10002",
    "CuisineType": {
      "S": "indian"
    },
    "InsertedAtTimestamp": {
      "N": "1697590581.699066"
    }
  },
  {
    "Business ID": "NgD-6ogFGc_c4z5_Ur4k2g",
    "Name": "Dhaba Indian Cuisine",
    "Address": "108 Lexington Ave",
    "Coordinates": {
      "Latitude": 40.742364,
      "Longitude": -73.982813
    },
    "Number of Reviews": 1592,
    "Rating": 3.5,
    "Zip Code": "10016",
    "CuisineType": {
      "S": "indian"
    },
    "InsertedAtTimestamp": {
      "N": "1697590581.69909"
    }
  },
  {
    "Business ID": "Txm8KtUh9Mn2E7980jTr5g",
    "Name": "Dhamaka",
    "Address": "119 Delancey St",
    "Coordinates": {
      "Latitude": 40.7180658,
      "Longitude": -73.9881304
    },
    "Number of Reviews": 435,
    "Rating": 4.0,
    "Zip Code": "10002",
    "CuisineType": {
      "S": "indian"
    },
    "InsertedAtTimestamp": {
      "N": "1697590581.699113"
    }
  },
  {
    "Business ID": "xWVHj2XNcxEg79Nkb5Zb6Q",
    "Name": "Semma",
    "Address": "60 Greenwich Ave",
    "Coordinates": {
      "Latitude": 40.736054206102615,
      "Longitude": -74.0005639
    },
    "Number of Reviews": 352,
    "Rating": 4.0,
    "Zip Code": "10011",
    "CuisineType": {
      "S": "indian"
    },
    "InsertedAtTimestamp": {
      "N": "1697590581.699135"
    }
  },
  {
    "Business ID": "5UowQyu8tSljomOP-VL7NA",
    "Name": "Tribhaanga",
    "Address": "234 W 56th St",
    "Coordinates": {
      "Latitude": 40.765496,
      "Longitude": -73.982754
    },
    "Number of Reviews": 61,
    "Rating": 4.5,
    "Zip Code": "10019",
    "CuisineType": {
      "S": "indian"
    },
    "InsertedAtTimestamp": {
      "N": "1697590581.699294"
    }
  },
  {
    "Business ID": "_R6EjbrynW_LFnmWoRqgww",
    "Name": "Surya - Madam Ji",
    "Address": "154 Bleecker St",
    "Coordinates": {
      "Latitude": 40.7281,
      "Longitude": -73.99963
    },
    "Number of Reviews": 294,
    "Rating": 3.5,
    "Zip Code": "10012",
    "CuisineType": {
      "S": "indian"
    },
    "InsertedAtTimestamp": {
      "N": "1697590581.699335"
    }
  },
  {
    "Business ID": "izRJeBfDQYJmd6ibIQ6Mfg",
    "Name": "Mughlai Indian Cuisine",
    "Address": "1724 2nd Ave",
    "Coordinates": {
      "Latitude": 40.78002,
      "Longitude": -73.94978
    },
    "Number of Reviews": 623,
    "Rating": 4.5,
    "Zip Code": "10128",
    "CuisineType": {
      "S": "indian"
    },
    "InsertedAtTimestamp": {
      "N": "1697590581.699357"
    }
  },
  {
    "Business ID": "qhXIW0LDT4XsoN2IE6dZHg",
    "Name": "Ahimsa",
    "Address": "204 E 38th St",
    "Coordinates": {
      "Latitude": 40.7478959,
      "Longitude": -73.9758638
    },
    "Number of Reviews": 218,
    "Rating": 4.5,
    "Zip Code": "10016",
    "CuisineType": {
      "S": "indian"
    },
    "InsertedAtTimestamp": {
      "N": "1697590581.699379"
    }
  },
  {
    "Business ID": "50eKjWOB-H9iuo1ocACOaQ",
    "Name": "Imli Urban Indian Food",
    "Address": "1136 1st Ave",
    "Coordinates": {
      "Latitude": 40.7616660604253,
      "Longitude": -73.9601389691234
    },
    "Number of Reviews": 257,
    "Rating": 4.5,
    "Zip Code": "10065",
    "CuisineType": {
      "S": "indian"
    },
    "InsertedAtTimestamp": {
      "N": "1697590581.6994"
    }
  },
  {
    "Business ID": "ePn4BwyXeY8NKN-MWSgfrQ",
    "Name": "Kebab Aur Sharab",
    "Address": "247 W 72nd St",
    "Coordinates": {
      "Latitude": 40.77951,
      "Longitude": -73.98331
    },
    "Number of Reviews": 88,
    "Rating": 4.0,
    "Zip Code": "10023",
    "CuisineType": {
      "S": "indian"
    },
    "InsertedAtTimestamp": {
      "N": "1697590581.699423"
    }
  },
  {
    "Business ID": "1KGvtMU7VBcdlvxo2brdQg",
    "Name": "Clove Indian Restaurant I",
    "Address": "1592 Amsterdam Ave",
    "Coordinates": {
      "Latitude": 40.8212624,
      "Longitude": -73.9506836
    },
    "Number of Reviews": 333,
    "Rating": 4.0,
    "Zip Code": "10031",
    "CuisineType": {
      "S": "indian"
    },
    "InsertedAtTimestamp": {
      "N": "1697590581.699445"
    }
  },
  {
    "Business ID": "7USPKYeaAfxl0Ch9j_1l7A",
    "Name": "Moti Mahal Delux",
    "Address": "1149 1st Ave",
    "Coordinates": {
      "Latitude": 40.76213,
      "Longitude": -73.9605
    },
    "Number of Reviews": 566,
    "Rating": 4.0,
    "Zip Code": "10065",
    "CuisineType": {
      "S": "indian"
    },
    "InsertedAtTimestamp": {
      "N": "1697590581.699467"
    }
  },
  {
    "Business ID": "iXSuNKKUBIrBX7zUerlQDQ",
    "Name": "Benares",
    "Address": "45 Murray St",
    "Coordinates": {
      "Latitude": 40.71415,
      "Longitude": -74.009209
    },
    "Number of Reviews": 654,
    "Rating": 4.0,
    "Zip Code": "10007",
    "CuisineType": {
      "S": "indian"
    },
    "InsertedAtTimestamp": {
      "N": "1697590581.69949"
    }
  },
  {
    "Business ID": "t6PzD4uzBOfyCLcd_lT8cQ",
    "Name": "Sathi",
    "Address": "216 3rd Ave",
    "Coordinates": {
      "Latitude": 40.73621,
      "Longitude": -73.98528
    },
    "Number of Reviews": 296,
    "Rating": 4.5,
    "Zip Code": "10003",
    "CuisineType": {
      "S": "indian"
    },
    "InsertedAtTimestamp": {
      "N": "1697590581.699513"
    }
  },
  {
    "Business ID": "iLjrQvbUYPj6NLkalyau0w",
    "Name": "Hyderabadi Zaiqa",
    "Address": "366 W 52 St",
    "Coordinates": {
      "Latitude": 40.76439568665357,
      "Longitude": -73.9876243
    },
    "Number of Reviews": 25,
    "Rating": 5.0,
    "Zip Code": "10019",
    "CuisineType": {
      "S": "indian"
    },
    "InsertedAtTimestamp": {
      "N": "1697590581.699536"
    }
  },
  {
    "Business ID": "tN37MOvqzrmpU0h0PfoDmw",
    "Name": "Utsav",
    "Address": "1185 Avenue Of The Americas Plz",
    "Coordinates": {
      "Latitude": 40.75787,
      "Longitude": -73.982418
    },
    "Number of Reviews": 650,
    "Rating": 3.5,
    "Zip Code": "10036",
    "CuisineType": {
      "S": "indian"
    },
    "InsertedAtTimestamp": {
      "N": "1697590581.699559"
    }
  },
  {
    "Business ID": "A-ert0jDRBfku9ogyW_mEg",
    "Name": "Spice Symphony",
    "Address": "150 E 50th St",
    "Coordinates": {
      "Latitude": 40.7558937072754,
      "Longitude": -73.9715347290039
    },
    "Number of Reviews": 655,
    "Rating": 4.5,
    "Zip Code": "10022",
    "CuisineType": {
      "S": "indian"
    },
    "InsertedAtTimestamp": {
      "N": "1697590581.699582"
    }
  },
  {
    "Business ID": "RARUAVWONyRQovr0D6TGQg",
    "Name": "Baazi",
    "Address": "2588 Broadway",
    "Coordinates": {
      "Latitude": 40.7955035,
      "Longitude": -73.9708505
    },
    "Number of Reviews": 71,
    "Rating": 4.0,
    "Zip Code": "10025",
    "CuisineType": {
      "S": "indian"
    },
    "InsertedAtTimestamp": {
      "N": "1697590581.699607"
    }
  },
  {
    "Business ID": "XKy4Cy4uNgO7rxhH4yFJQQ",
    "Name": "Mughlai Indian Cuisine",
    "Address": "329 3rd Ave",
    "Coordinates": {
      "Latitude": 40.7397599,
      "Longitude": -73.98226
    },
    "Number of Reviews": 462,
    "Rating": 4.0,
    "Zip Code": "10010",
    "CuisineType": {
      "S": "indian"
    },
    "InsertedAtTimestamp": {
      "N": "1697590581.699631"
    }
  },
  {
    "Business ID": "eTzH9lmkmouNlmuJ77i8Ow",
    "Name": "Angaar",
    "Address": "283 Columbus Ave",
    "Coordinates": {
      "Latitude": 40.7782,
      "Longitude": -73.97802
    },
    "Number of Reviews": 203,
    "Rating": 4.0,
    "Zip Code": "10023",
    "CuisineType": {
      "S": "indian"
    },
    "InsertedAtTimestamp": {
      "N": "1697590581.699653"
    }
  },
  {
    "Business ID": "BPyt7S9TdcR1u571iacg7g",
    "Name": "The Kati Roll Company",
    "Address": "49 W 39th St",
    "Coordinates": {
      "Latitude": 40.752819,
      "Longitude": -73.984587
    },
    "Number of Reviews": 1678,
    "Rating": 3.5,
    "Zip Code": "10018",
    "CuisineType": {
      "S": "indian"
    },
    "InsertedAtTimestamp": {
      "N": "1697590581.699679"
    }
  },
  {
    "Business ID": "3hlAeWgSKAnSQ1tg8k8D8g",
    "Name": "Alachi Masala",
    "Address": "Ave",
    "Coordinates": {
      "Latitude": 40.786196,
      "Longitude": -73.976448
    },
    "Number of Reviews": 282,
    "Rating": 4.0,
    "Zip Code": "10024",
    "CuisineType": {
      "S": "indian"
    },
    "InsertedAtTimestamp": {
      "N": "1697590581.699703"
    }
  },
  {
    "Business ID": "Q7wFlNr4OFU0eCJXcOmopg",
    "Name": "Bombay's Indian Restaurant",
    "Address": "60 Pearl St",
    "Coordinates": {
      "Latitude": 40.70344,
      "Longitude": -74.01109
    },
    "Number of Reviews": 262,
    "Rating": 3.5,
    "Zip Code": "10004",
    "CuisineType": {
      "S": "indian"
    },
    "InsertedAtTimestamp": {
      "N": "1697590581.699809"
    }
  },
  {
    "Business ID": "VC1udoc_sbHdFaBr0-bMsA",
    "Name": "Bombay Chowk",
    "Address": "1378 1st Ave",
    "Coordinates": {
      "Latitude": 40.76873,
      "Longitude": -73.9549
    },
    "Number of Reviews": 175,
    "Rating": 4.0,
    "Zip Code": "10021",
    "CuisineType": {
      "S": "indian"
    },
    "InsertedAtTimestamp": {
      "N": "1697590581.699832"
    }
  },
  {
    "Business ID": "IU6pOHR8Re8kvSn0mzhPHg",
    "Name": "Jaz Indian Cuisine",
    "Address": "813 Ninth Ave",
    "Coordinates": {
      "Latitude": 40.7659,
      "Longitude": -73.98741
    },
    "Number of Reviews": 152,
    "Rating": 4.5,
    "Zip Code": "10019",
    "CuisineType": {
      "S": "indian"
    },
    "InsertedAtTimestamp": {
      "N": "1697590581.699879"
    }
  },
  {
    "Business ID": "9MO5UogFuvqAriOA9RlqKA",
    "Name": "Saravana Bhavan",
    "Address": "32 Old Slip",
    "Coordinates": {
      "Latitude": 40.7038,
      "Longitude": -74.00816
    },
    "Number of Reviews": 9,
    "Rating": 4.0,
    "Zip Code": "10005",
    "CuisineType": {
      "S": "indian"
    },
    "InsertedAtTimestamp": {
      "N": "1697590581.699903"
    }
  },
  {
    "Business ID": "u_CnSp9FieAuWqhvCn-A2A",
    "Name": "Spice Mantra",
    "Address": "1047 2nd Ave",
    "Coordinates": {
      "Latitude": 40.75825,
      "Longitude": -73.96633
    },
    "Number of Reviews": 81,
    "Rating": 4.5,
    "Zip Code": "10022",
    "CuisineType": {
      "S": "indian"
    },
    "InsertedAtTimestamp": {
      "N": "1697590581.699926"
    }
  },
  {
    "Business ID": "7DUPGtHqVZHJ3yIufbWLsg",
    "Name": "Malai Marke Indian Cuisine",
    "Address": "318 E 6th St",
    "Coordinates": {
      "Latitude": 40.726934,
      "Longitude": -73.98758
    },
    "Number of Reviews": 651,
    "Rating": 4.0,
    "Zip Code": "10003",
    "CuisineType": {
      "S": "indian"
    },
    "InsertedAtTimestamp": {
      "N": "1697590581.699948"
    }
  },
  {
    "Business ID": "u1gdMF6vMCdwCilQ6vgyfw",
    "Name": "Honest",
    "Address": "176 Bleecker St",
    "Coordinates": {
      "Latitude": 40.72887,
      "Longitude": -74.00082
    },
    "Number of Reviews": 52,
    "Rating": 4.5,
    "Zip Code": "10012",
    "CuisineType": {
      "S": "indian"
    },
    "InsertedAtTimestamp": {
      "N": "1697590581.69997"
    }
  },
  {
    "Business ID": "5faOK0osoS-zdEwT21S-Cg",
    "Name": "Saravanaa Bhavan",
    "Address": "413 Amsterdam Ave",
    "Coordinates": {
      "Latitude": 40.7835899,
      "Longitude": -73.97777
    },
    "Number of Reviews": 409,
    "Rating": 3.0,
    "Zip Code": "10024",
    "CuisineType": {
      "S": "indian"
    },
    "InsertedAtTimestamp": {
      "N": "1697590581.699992"
    }
  },
  {
    "Business ID": "JSX6Pk56w4BhgO8eSvCrKg",
    "Name": "aRoqa",
    "Address": "206 9th Ave",
    "Coordinates": {
      "Latitude": 40.746065,
      "Longitude": -74.001254
    },
    "Number of Reviews": 403,
    "Rating": 4.0,
    "Zip Code": "10011",
    "CuisineType": {
      "S": "indian"
    },
    "InsertedAtTimestamp": {
      "N": "1697590581.700015"
    }
  },
  {
    "Business ID": "DZE4ThXa7d0kSXnR3Hb-kg",
    "Name": "Junoon",
    "Address": "19 W 24th St",
    "Coordinates": {
      "Latitude": 40.74299,
      "Longitude": -73.990462
    },
    "Number of Reviews": 1755,
    "Rating": 3.5,
    "Zip Code": "10010",
    "CuisineType": {
      "S": "indian"
    },
    "InsertedAtTimestamp": {
      "N": "1697590581.700038"
    }
  },
  {
    "Business ID": "ECUTH1VOWxZ9GwfzblMKzA",
    "Name": "Mughlai Indian Cuisine",
    "Address": "255 W 55th St",
    "Coordinates": {
      "Latitude": 40.765394,
      "Longitude": -73.983272
    },
    "Number of Reviews": 177,
    "Rating": 4.5,
    "Zip Code": "10019",
    "CuisineType": {
      "S": "indian"
    },
    "InsertedAtTimestamp": {
      "N": "1697590581.70006"
    }
  },
  {
    "Business ID": "raGF9jAO7JOiIbFQ2_bTAg",
    "Name": "India at Time Square",
    "Address": "332 W 44th St",
    "Coordinates": {
      "Latitude": 40.75941459798258,
      "Longitude": -73.99145881962656
    },
    "Number of Reviews": 102,
    "Rating": 4.5,
    "Zip Code": "10036",
    "CuisineType": {
      "S": "indian"
    },
    "InsertedAtTimestamp": {
      "N": "1697590581.700082"
    }
  },
  {
    "Business ID": "FXDMFBM-rV2s5MHzA33d2g",
    "Name": "Bombay Grill House",
    "Address": "764 9th Ave",
    "Coordinates": {
      "Latitude": 40.76421,
      "Longitude": -73.988101
    },
    "Number of Reviews": 325,
    "Rating": 4.0,
    "Zip Code": "10019",
    "CuisineType": {
      "S": "indian"
    },
    "InsertedAtTimestamp": {
      "N": "1697590581.700105"
    }
  },
  {
    "Business ID": "mZALre3ahuetu5X8_uUJew",
    "Name": "Thelewala",
    "Address": "112 Macdougal St",
    "Coordinates": {
      "Latitude": 40.72963,
      "Longitude": -74.00068
    },
    "Number of Reviews": 542,
    "Rating": 4.0,
    "Zip Code": "10012",
    "CuisineType": {
      "S": "indian"
    },
    "InsertedAtTimestamp": {
      "N": "1697590581.700126"
    }
  },
  {
    "Business ID": "Xl-zlT0NLLiKhym88em22w",
    "Name": "Adda Indian Canteen",
    "Address": "31-31 Thomson Ave",
    "Coordinates": {
      "Latitude": 40.745011,
      "Longitude": -73.934243
    },
    "Number of Reviews": 569,
    "Rating": 4.0,
    "Zip Code": "11101",
    "CuisineType": {
      "S": "indian"
    },
    "InsertedAtTimestamp": {
      "N": "1697590581.700148"
    }
  },
  {
    "Business ID": "uucP1LoFyamFS0qDwgMXbg",
    "Name": "Ghandi Cafe",
    "Address": "283 Bleecker St",
    "Coordinates": {
      "Latitude": 40.73194,
      "Longitude": -74.0033
    },
    "Number of Reviews": 496,
    "Rating": 4.0,
    "Zip Code": "10014",
    "CuisineType": {
      "S": "indian"
    },
    "InsertedAtTimestamp": {
      "N": "1697590581.70017"
    }
  },
  {
    "Business ID": "nd0uXNXaeaDMuMk4C1GusA",
    "Name": "Bukhara Grill:Indian Spice Rave",
    "Address": "217 E 49th St",
    "Coordinates": {
      "Latitude": 40.75501,
      "Longitude": -73.97028
    },
    "Number of Reviews": 554,
    "Rating": 3.5,
    "Zip Code": "10017",
    "CuisineType": {
      "S": "indian"
    },
    "InsertedAtTimestamp": {
      "N": "1697590581.700192"
    }
  },
  {
    "Business ID": "T1CRoZ-f-hwrjdkBvt7_kg",
    "Name": "Indian Tanpura",
    "Address": "564 Amsterdam Ave",
    "Coordinates": {
      "Latitude": 40.78869,
      "Longitude": -73.97468
    },
    "Number of Reviews": 190,
    "Rating": 4.0,
    "Zip Code": "10024",
    "CuisineType": {
      "S": "indian"
    },
    "InsertedAtTimestamp": {
      "N": "1697590581.700214"
    }
  },
  {
    "Business ID": "jzO5HyrTtumHpe-pbUlndQ",
    "Name": "Aangan Indian Cuisine",
    "Address": "2701 Broadway",
    "Coordinates": {
      "Latitude": 40.799446,
      "Longitude": -73.968795
    },
    "Number of Reviews": 232,
    "Rating": 3.5,
    "Zip Code": "10025",
    "CuisineType": {
      "S": "indian"
    },
    "InsertedAtTimestamp": {
      "N": "1697590581.700236"
    }
  },
  {
    "Business ID": "V2oWqXcoJkgGeIPOaS9eDA",
    "Name": "Masala Times Greenwich Village",
    "Address": "194 Bleecker St",
    "Coordinates": {
      "Latitude": 40.7292728223798,
      "Longitude": -74.0015978515206
    },
    "Number of Reviews": 573,
    "Rating": 4.0,
    "Zip Code": "10012",
    "CuisineType": {
      "S": "indian"
    },
    "InsertedAtTimestamp": {
      "N": "1697590581.700258"
    }
  },
  {
    "Business ID": "EKY8DwZVWpkgv6IWrepbWg",
    "Name": "Namaste",
    "Address": "195 5th Ave",
    "Coordinates": {
      "Latitude": 40.67673,
      "Longitude": -73.98009
    },
    "Number of Reviews": 337,
    "Rating": 4.5,
    "Zip Code": "11217",
    "CuisineType": {
      "S": "indian"
    },
    "InsertedAtTimestamp": {
      "N": "1697590581.700281"
    }
  },
  {
    "Business ID": "Va_mnsEvBghHXvc7uZIWJQ",
    "Name": "Spice Symphony",
    "Address": "182 Lexington Ave",
    "Coordinates": {
      "Latitude": 40.744722,
      "Longitude": -73.981202
    },
    "Number of Reviews": 675,
    "Rating": 4.0,
    "Zip Code": "10016",
    "CuisineType": {
      "S": "indian"
    },
    "InsertedAtTimestamp": {
      "N": "1697590581.700304"
    }
  },
  {
    "Business ID": "CVpha6hKVu_r1lx6JxNIPg",
    "Name": "Veeray da Dhaba",
    "Address": "222 1st Ave",
    "Coordinates": {
      "Latitude": 40.730819,
      "Longitude": -73.982723
    },
    "Number of Reviews": 110,
    "Rating": 4.5,
    "Zip Code": "10009",
    "CuisineType": {
      "S": "indian"
    },
    "InsertedAtTimestamp": {
      "N": "1697590581.700348"
    }
  },
  {
    "Business ID": "Y2I946V78wOdwaUD9chmqg",
    "Name": "Roti Roll Bombay Frankie",
    "Address": "994 Amsterdam Ave",
    "Coordinates": {
      "Latitude": 40.8026,
      "Longitude": -73.96437
    },
    "Number of Reviews": 427,
    "Rating": 4.0,
    "Zip Code": "10025",
    "CuisineType": {
      "S": "indian"
    },
    "InsertedAtTimestamp": {
      "N": "1697590581.700371"
    }
  },
  {
    "Business ID": "3uEkZEAp7biQEtt0S7W1Vg",
    "Name": "Vatan Indian Vegetarian",
    "Address": "409 3rd Ave",
    "Coordinates": {
      "Latitude": 40.74236,
      "Longitude": -73.9803699
    },
    "Number of Reviews": 882,
    "Rating": 4.0,
    "Zip Code": "10016",
    "CuisineType": {
      "S": "indian"
    },
    "InsertedAtTimestamp": {
      "N": "1697590581.700473"
    }
  },
  {
    "Business ID": "_z2_1TE_1brlvljiGtJ4mA",
    "Name": "Aahar Indian Cuisine",
    "Address": "10 Murray St",
    "Coordinates": {
      "Latitude": 40.71334,
      "Longitude": -74.0081
    },
    "Number of Reviews": 441,
    "Rating": 4.5,
    "Zip Code": "10007",
    "CuisineType": {
      "S": "indian"
    },
    "InsertedAtTimestamp": {
      "N": "1697590581.700495"
    }
  },
  {
    "Business ID": "5z7OuOWuZRu6byp2XDKbQw",
    "Name": "Saravanaa Bhavan",
    "Address": "81 Lexington Ave",
    "Coordinates": {
      "Latitude": 40.7414,
      "Longitude": -73.98306
    },
    "Number of Reviews": 1024,
    "Rating": 3.5,
    "Zip Code": "10016",
    "CuisineType": {
      "S": "indian"
    },
    "InsertedAtTimestamp": {
      "N": "1697590581.700517"
    }
  },
  {
    "Business ID": "XgqIDfU6tKPUdRxRG5uDNw",
    "Name": "Desi Deli Indian Restaurant",
    "Address": "724 10th Ave",
    "Coordinates": {
      "Latitude": 40.76433,
      "Longitude": -73.99182
    },
    "Number of Reviews": 150,
    "Rating": 3.5,
    "Zip Code": "10019",
    "CuisineType": {
      "S": "indian"
    },
    "InsertedAtTimestamp": {
      "N": "1697590581.700539"
    }
  },
  {
    "Business ID": "sCHiXF4mZcsiY8_cBHNiqw",
    "Name": "deep indian kitchen - indikitch",
    "Address": "25 W 23rd St",
    "Coordinates": {
      "Latitude": 40.7422142028809,
      "Longitude": -73.9904403686523
    },
    "Number of Reviews": 747,
    "Rating": 4.0,
    "Zip Code": "10010",
    "CuisineType": {
      "S": "indian"
    },
    "InsertedAtTimestamp": {
      "N": "1697590581.700562"
    }
  },
  {
    "Business ID": "GNPne4Il-itbn2sLbvMo1g",
    "Name": "Angel Indian Restaurant",
    "Address": "7414 37th Rd",
    "Coordinates": {
      "Latitude": 40.7473069226623,
      "Longitude": -73.8912814123575
    },
    "Number of Reviews": 422,
    "Rating": 4.5,
    "Zip Code": "11372",
    "CuisineType": {
      "S": "indian"
    },
    "InsertedAtTimestamp": {
      "N": "1697590581.700584"
    }
  },
  {
    "Business ID": "fCxjrytrEw_l9vGjSCzszg",
    "Name": "Paisley",
    "Address": "429 Greenwich St",
    "Coordinates": {
      "Latitude": 40.722387,
      "Longitude": -74.0095662
    },
    "Number of Reviews": 101,
    "Rating": 4.5,
    "Zip Code": "10013",
    "CuisineType": {
      "S": "indian"
    },
    "InsertedAtTimestamp": {
      "N": "1697590581.700606"
    }
  },
  {
    "Business ID": "w2-VGvlBCMYo9ko8Y_PzAw",
    "Name": "Masala King",
    "Address": "64 E 34th St",
    "Coordinates": {
      "Latitude": 40.747176,
      "Longitude": -73.981957
    },
    "Number of Reviews": 282,
    "Rating": 4.0,
    "Zip Code": "10016",
    "CuisineType": {
      "S": "indian"
    },
    "InsertedAtTimestamp": {
      "N": "1697590581.700642"
    }
  },
  {
    "Business ID": "GaxVczLK1qUuJHOP9VcFsQ",
    "Name": "Ananda",
    "Address": "210 Thompson St",
    "Coordinates": {
      "Latitude": 40.728724,
      "Longitude": -73.999147
    },
    "Number of Reviews": 403,
    "Rating": 4.0,
    "Zip Code": "10012",
    "CuisineType": {
      "S": "indian"
    },
    "InsertedAtTimestamp": {
      "N": "1697590581.700664"
    }
  },
  {
    "Business ID": "wm10mMj_41_-l_gRhRH3TA",
    "Name": "deep indian kitchen - indikitch",
    "Address": "940 8th Ave",
    "Coordinates": {
      "Latitude": 40.76573,
      "Longitude": -73.98338
    },
    "Number of Reviews": 491,
    "Rating": 4.0,
    "Zip Code": "10019",
    "CuisineType": {
      "S": "indian"
    },
    "InsertedAtTimestamp": {
      "N": "1697590581.700685"
    }
  },
  {
    "Business ID": "guwS_mhhUjOT5d8sYfEluQ",
    "Name": "Adyar Ananda Bhavan",
    "Address": "1071 1st Ave",
    "Coordinates": {
      "Latitude": 40.759381,
      "Longitude": -73.962489
    },
    "Number of Reviews": 400,
    "Rating": 3.5,
    "Zip Code": "10022",
    "CuisineType": {
      "S": "indian"
    },
    "InsertedAtTimestamp": {
      "N": "1697590581.700707"
    }
  },
  {
    "Business ID": "b1_E7HffjgCEMGetIDn1uw",
    "Name": "Bombay Curry Co.",
    "Address": "48 W 27th St",
    "Coordinates": {
      "Latitude": 40.744952,
      "Longitude": -73.990392
    },
    "Number of Reviews": 1,
    "Rating": 5.0,
    "Zip Code": "10001",
    "CuisineType": {
      "S": "indian"
    },
    "InsertedAtTimestamp": {
      "N": "1697590581.700729"
    }
  },
  {
    "Business ID": "t_tWuzMEsoD9GDgAm_0l7g",
    "Name": "Swagat",
    "Address": "411 Amsterdam Ave",
    "Coordinates": {
      "Latitude": 40.78353,
      "Longitude": -73.97782
    },
    "Number of Reviews": 434,
    "Rating": 3.5,
    "Zip Code": "10024",
    "CuisineType": {
      "S": "indian"
    },
    "InsertedAtTimestamp": {
      "N": "1697590581.700751"
    }
  },
  {
    "Business ID": "CEdTPBK6HBjpUP_zLDdrlQ",
    "Name": "SONA",
    "Address": "36 East 20th St",
    "Coordinates": {
      "Latitude": 40.73861,
      "Longitude": -73.98864
    },
    "Number of Reviews": 355,
    "Rating": 3.0,
    "Zip Code": "10003",
    "CuisineType": {
      "S": "indian"
    },
    "InsertedAtTimestamp": {
      "N": "1697590581.700773"
    }
  },
  {
    "Business ID": "NVMdf02l1GuzzDb7ESI_qQ",
    "Name": "Taste From Everest",
    "Address": "102 Lexington Ave",
    "Coordinates": {
      "Latitude": 40.7422712,
      "Longitude": -73.9830327
    },
    "Number of Reviews": 108,
    "Rating": 4.5,
    "Zip Code": "10016",
    "CuisineType": {
      "S": "indian"
    },
    "InsertedAtTimestamp": {
      "N": "1697590581.700798"
    }
  },
  {
    "Business ID": "jvPYm9rYK-5ddnjU30Oz4Q",
    "Name": "Avant Garden",
    "Address": "95 Avenue A",
    "Coordinates": {
      "Latitude": 40.72567325788113,
      "Longitude": -73.98408189999999
    },
    "Number of Reviews": 436,
    "Rating": 4.5,
    "Zip Code": "10009",
    "CuisineType": {
      "S": "indian"
    },
    "InsertedAtTimestamp": {
      "N": "1697590581.700821"
    }
  },
  {
    "Business ID": "UtknyDJ_DPut-FKRqs0wpQ",
    "Name": "Royal Grill Halal Food",
    "Address": "44TH St And 6th Ave",
    "Coordinates": {
      "Latitude": 40.75621073292354,
      "Longitude": -73.98334948251191
    },
    "Number of Reviews": 549,
    "Rating": 4.5,
    "Zip Code": "10018",
    "CuisineType": {
      "S": "indian"
    },
    "InsertedAtTimestamp": {
      "N": "1697590581.700844"
    }
  },
  {
    "Business ID": "lxNU-aBq0yPwBDx-i89ahA",
    "Name": "Seva Indian Cuisine",
    "Address": "34-11 30th Ave",
    "Coordinates": {
      "Latitude": 40.76571,
      "Longitude": -73.91839
    },
    "Number of Reviews": 1436,
    "Rating": 4.5,
    "Zip Code": "11103",
    "CuisineType": {
      "S": "indian"
    },
    "InsertedAtTimestamp": {
      "N": "1697590581.700866"
    }
  },
  {
    "Business ID": "zVLG_O3AQnvQ53PSJ5mTMA",
    "Name": "Om",
    "Address": "1531 York Ave",
    "Coordinates": {
      "Latitude": 40.7726799,
      "Longitude": -73.9497983
    },
    "Number of Reviews": 548,
    "Rating": 4.0,
    "Zip Code": "10028",
    "CuisineType": {
      "S": "indian"
    },
    "InsertedAtTimestamp": {
      "N": "1697590581.700903"
    }
  },
  {
    "Business ID": "m9Q9x-Hcxp24gZCaTTJY-A",
    "Name": "Sahib",
    "Address": "104 Lexington Ave",
    "Coordinates": {
      "Latitude": 40.74232,
      "Longitude": -73.9830099
    },
    "Number of Reviews": 300,
    "Rating": 4.0,
    "Zip Code": "10016",
    "CuisineType": {
      "S": "indian"
    },
    "InsertedAtTimestamp": {
      "N": "1697590581.700927"
    }
  },
  {
    "Business ID": "nQfPwIasXCi8NwNKq65vfw",
    "Name": "Mysttik Masaala",
    "Address": "152 West 52nd St",
    "Coordinates": {
      "Latitude": 40.7617745,
      "Longitude": -73.98173
    },
    "Number of Reviews": 132,
    "Rating": 4.5,
    "Zip Code": "10019",
    "CuisineType": {
      "S": "indian"
    },
    "InsertedAtTimestamp": {
      "N": "1697590581.700949"
    }
  },
  {
    "Business ID": "ZNJ4ij7_xOlKSeMeEh1khA",
    "Name": "Rowdy Rooster",
    "Address": "149 1st Ave",
    "Coordinates": {
      "Latitude": 40.728473350506725,
      "Longitude": -73.98500709999999
    },
    "Number of Reviews": 197,
    "Rating": 4.5,
    "Zip Code": "10003",
    "CuisineType": {
      "S": "indian"
    },
    "InsertedAtTimestamp": {
      "N": "1697590581.700971"
    }
  },
  {
    "Business ID": "bFUVp77ApNkACqXvgiekPQ",
    "Name": "Bhatti Indian Grill",
    "Address": "100 Lexington Ave",
    "Coordinates": {
      "Latitude": 40.74221,
      "Longitude": -73.98308
    },
    "Number of Reviews": 893,
    "Rating": 3.5,
    "Zip Code": "10016",
    "CuisineType": {
      "S": "indian"
    },
    "InsertedAtTimestamp": {
      "N": "1697590581.700993"
    }
  },
  {
    "Business ID": "FvnExtQHPfz_crDCBTQ1iQ",
    "Name": "Mint Masala",
    "Address": "95 Macdougal St",
    "Coordinates": {
      "Latitude": 40.729513,
      "Longitude": -74.001138
    },
    "Number of Reviews": 348,
    "Rating": 4.0,
    "Zip Code": "10012",
    "CuisineType": {
      "S": "indian"
    },
    "InsertedAtTimestamp": {
      "N": "1697590581.701016"
    }
  },
  {
    "Business ID": "gWuHmSQ8G5FiKv-rEogwvA",
    "Name": "Pongal",
    "Address": "110 Lexington Ave",
    "Coordinates": {
      "Latitude": 40.74246,
      "Longitude": -73.9829
    },
    "Number of Reviews": 565,
    "Rating": 4.0,
    "Zip Code": "10016",
    "CuisineType": {
      "S": "indian"
    },
    "InsertedAtTimestamp": {
      "N": "1697590581.701116"
    }
  },
  {
    "Business ID": "6NcU2JAznLr9dDHp6GgQyw",
    "Name": "Doaba Deli",
    "Address": "945 Columbus Ave",
    "Coordinates": {
      "Latitude": 40.7994,
      "Longitude": -73.9624
    },
    "Number of Reviews": 251,
    "Rating": 4.5,
    "Zip Code": "10025",
    "CuisineType": {
      "S": "indian"
    },
    "InsertedAtTimestamp": {
      "N": "1697590581.701139"
    }
  },
  {
    "Business ID": "rzjwoNXH2tCEmA3wo6fy9w",
    "Name": "India Palace",
    "Address": "401 E 62nd St",
    "Coordinates": {
      "Latitude": 40.763200972497586,
      "Longitude": -73.96042531491231
    },
    "Number of Reviews": 30,
    "Rating": 4.0,
    "Zip Code": "10065",
    "CuisineType": {
      "S": "indian"
    },
    "InsertedAtTimestamp": {
      "N": "1697590581.701161"
    }
  },
  {
    "Business ID": "jb-Fe1cC3ZARF9xyFvJQYQ",
    "Name": "Tandoor Oven",
    "Address": "175 E 83rd St",
    "Coordinates": {
      "Latitude": 40.77715077114621,
      "Longitude": -73.9556964
    },
    "Number of Reviews": 202,
    "Rating": 3.5,
    "Zip Code": "10028",
    "CuisineType": {
      "S": "indian"
    },
    "InsertedAtTimestamp": {
      "N": "1697590581.701184"
    }
  },
  {
    "Business ID": "3kuaJMPOeTP1O1CK2fyOsA",
    "Name": "Dadi Ma Home Style Indian Cooking",
    "Address": "246 E 51st",
    "Coordinates": {
      "Latitude": 40.75557266682884,
      "Longitude": -73.9687464
    },
    "Number of Reviews": 1,
    "Rating": 5.0,
    "Zip Code": "10022",
    "CuisineType": {
      "S": "indian"
    },
    "InsertedAtTimestamp": {
      "N": "1697590581.701208"
    }
  },
  {
    "Business ID": "_SIoeZKs--95T4OsUKwtJw",
    "Name": "Chote Miya",
    "Address": "75 9th Ave",
    "Coordinates": {
      "Latitude": 40.74222,
      "Longitude": -74.00466
    },
    "Number of Reviews": 76,
    "Rating": 4.0,
    "Zip Code": "10011",
    "CuisineType": {
      "S": "indian"
    },
    "InsertedAtTimestamp": {
      "N": "1697590581.70123"
    }
  },
  {
    "Business ID": "qs5aBgcT2v1BFlW-XqQS0Q",
    "Name": "Biryani Cart",
    "Address": "46th St & 6th Ave",
    "Coordinates": {
      "Latitude": 40.757403,
      "Longitude": -73.9822503
    },
    "Number of Reviews": 565,
    "Rating": 3.5,
    "Zip Code": "10003",
    "CuisineType": {
      "S": "indian"
    },
    "InsertedAtTimestamp": {
      "N": "1697590581.701252"
    }
  },
  {
    "Business ID": "l_Td-NFRIdxu7m6pgJUqhQ",
    "Name": "Manhattan Valley",
    "Address": "2636 Broadway 100 St",
    "Coordinates": {
      "Latitude": 40.796965,
      "Longitude": -73.969741
    },
    "Number of Reviews": 125,
    "Rating": 3.5,
    "Zip Code": "10025",
    "CuisineType": {
      "S": "indian"
    },
    "InsertedAtTimestamp": {
      "N": "1697590581.701274"
    }
  },
  {
    "Business ID": "iYh7mB7PDd5ZvZZ4lFPF1w",
    "Name": "Anand Indian Cuisine",
    "Address": "304 E 78th St",
    "Coordinates": {
      "Latitude": 40.77232,
      "Longitude": -73.955241
    },
    "Number of Reviews": 168,
    "Rating": 4.0,
    "Zip Code": "10075",
    "CuisineType": {
      "S": "indian"
    },
    "InsertedAtTimestamp": {
      "N": "1697590581.701296"
    }
  },
  {
    "Business ID": "x-T3WaLPnbVrxc-ruzFhyQ",
    "Name": "Mughlai Indian Cuisine",
    "Address": "120 Cedar St",
    "Coordinates": {
      "Latitude": 40.70953534633694,
      "Longitude": -74.01278923745791
    },
    "Number of Reviews": 35,
    "Rating": 4.5,
    "Zip Code": "10006",
    "CuisineType": {
      "S": "indian"
    },
    "InsertedAtTimestamp": {
      "N": "1697590581.701318"
    }
  },
  {
    "Business ID": "3C6c_zqRz_U2AyeN_7LTsg",
    "Name": "Himalayan Yak",
    "Address": "72-20 Roosevelt Ave",
    "Coordinates": {
      "Latitude": 40.746494,
      "Longitude": -73.892766
    },
    "Number of Reviews": 716,
    "Rating": 4.0,
    "Zip Code": "11372",
    "CuisineType": {
      "S": "indian"
    },
    "InsertedAtTimestamp": {
      "N": "1697590581.70134"
    }
  },
  {
    "Business ID": "t0mizbevBMMNBecgnl7vQg",
    "Name": "Anar",
    "Address": "935 Amsterdam Ave",
    "Coordinates": {
      "Latitude": 40.800232646589066,
      "Longitude": -73.96559153149137
    },
    "Number of Reviews": 117,
    "Rating": 4.0,
    "Zip Code": "10025",
    "CuisineType": {
      "S": "indian"
    },
    "InsertedAtTimestamp": {
      "N": "1697590581.701379"
    }
  },
  {
    "Business ID": "UiG3MlLDMMZp31XDBM2kvA",
    "Name": "Karahi Indian Cuisine",
    "Address": "803 9th Ave",
    "Coordinates": {
      "Latitude": 40.765667,
      "Longitude": -73.987595
    },
    "Number of Reviews": 109,
    "Rating": 4.5,
    "Zip Code": "10019",
    "CuisineType": {
      "S": "indian"
    },
    "InsertedAtTimestamp": {
      "N": "1697590581.701401"
    }
  },
  {
    "Business ID": "17hj-J-E7UFki3Brshu0lQ",
    "Name": "Taste of India",
    "Address": "166 Cedar Ln",
    "Coordinates": {
      "Latitude": 40.88572146,
      "Longitude": -74.01248005
    },
    "Number of Reviews": 87,
    "Rating": 4.0,
    "Zip Code": "07666",
    "CuisineType": {
      "S": "indian"
    },
    "InsertedAtTimestamp": {
      "N": "1697590581.701435"
    }
  },
  {
    "Business ID": "3oouzI_wb6V50qvS8hAeWQ",
    "Name": "Chai Pani by Wonder",
    "Address": "2030 Broadway",
    "Coordinates": {
      "Latitude": 40.77671,
      "Longitude": -73.98184
    },
    "Number of Reviews": 2,
    "Rating": 3.0,
    "Zip Code": "10023",
    "CuisineType": {
      "S": "indian"
    },
    "InsertedAtTimestamp": {
      "N": "1697590581.701473"
    }
  },
  {
    "Business ID": "SP4bvMvxel_UPdof_er3HA",
    "Name": "Taco Mahal",
    "Address": "73 7th Ave S",
    "Coordinates": {
      "Latitude": 40.73235768476899,
      "Longitude": -74.00332645767203
    },
    "Number of Reviews": 855,
    "Rating": 4.5,
    "Zip Code": "10014",
    "CuisineType": {
      "S": "indian"
    },
    "InsertedAtTimestamp": {
      "N": "1697590581.701512"
    }
  },
  {
    "Business ID": "gPattIGuKxCgeNjxfEMDjg",
    "Name": "Punjabi Junction Of 87th",
    "Address": "1665 1st Ave",
    "Coordinates": {
      "Latitude": 40.777471,
      "Longitude": -73.949159
    },
    "Number of Reviews": 62,
    "Rating": 5.0,
    "Zip Code": "10028",
    "CuisineType": {
      "S": "indian"
    },
    "InsertedAtTimestamp": {
      "N": "1697590581.701534"
    }
  },
  {
    "Business ID": "KXD44wWmrGf7mzyyr0bikw",
    "Name": "P.S. Kitchen",
    "Address": "246 W 48th St",
    "Coordinates": {
      "Latitude": 40.760706,
      "Longitude": -73.986627
    },
    "Number of Reviews": 712,
    "Rating": 4.5,
    "Zip Code": "10036",
    "CuisineType": {
      "S": "indian"
    },
    "InsertedAtTimestamp": {
      "N": "1697590581.701561"
    }
  },
  {
    "Business ID": "8Nva_eS_FxPOqVuUOvqz_Q",
    "Name": "Indian Summer Harlem",
    "Address": "239 Lenox Ave",
    "Coordinates": {
      "Latitude": 40.805898,
      "Longitude": -73.947324
    },
    "Number of Reviews": 166,
    "Rating": 4.5,
    "Zip Code": "10027",
    "CuisineType": {
      "S": "indian"
    },
    "InsertedAtTimestamp": {
      "N": "1697590581.701582"
    }
  },
  {
    "Business ID": "_nScWpFX3M1K7s30hFEsRw",
    "Name": "INDAY",
    "Address": "1133 Broadway",
    "Coordinates": {
      "Latitude": 40.7434986,
      "Longitude": -73.9892206
    },
    "Number of Reviews": 412,
    "Rating": 4.0,
    "Zip Code": "10010",
    "CuisineType": {
      "S": "indian"
    },
    "InsertedAtTimestamp": {
      "N": "1697590581.701604"
    }
  },
  {
    "Business ID": "BXoW0AUDE7WZJcY-Vhqlbg",
    "Name": "Indian Table",
    "Address": "234 Court St",
    "Coordinates": {
      "Latitude": 40.6859591,
      "Longitude": -73.9941661
    },
    "Number of Reviews": 210,
    "Rating": 4.5,
    "Zip Code": "11201",
    "CuisineType": {
      "S": "indian"
    },
    "InsertedAtTimestamp": {
      "N": "1697590581.701626"
    }
  },
  {
    "Business ID": "zyQpS4QrYYB0VKXf7JPUlQ",
    "Name": "Atithi Indian Cuisine",
    "Address": "159 Grand St",
    "Coordinates": {
      "Latitude": 40.714765,
      "Longitude": -73.961606
    },
    "Number of Reviews": 215,
    "Rating": 5.0,
    "Zip Code": "11249",
    "CuisineType": {
      "S": "indian"
    },
    "InsertedAtTimestamp": {
      "N": "1697590581.701648"
    }
  },
  {
    "Business ID": "GVaTZnN7a-DkrK57l7BbGw",
    "Name": "Boishakhi Restaurant",
    "Address": "2914 36th Ave",
    "Coordinates": {
      "Latitude": 40.7569548876687,
      "Longitude": -73.9310011267662
    },
    "Number of Reviews": 106,
    "Rating": 4.0,
    "Zip Code": "11106",
    "CuisineType": {
      "S": "indian"
    },
    "InsertedAtTimestamp": {
      "N": "1697590581.70167"
    }
  },
  {
    "Business ID": "HsEmXckXmsRAAEVDFCGYYg",
    "Name": "Namaste",
    "Address": "31-15 30th Ave",
    "Coordinates": {
      "Latitude": 40.7668,
      "Longitude": -73.92068
    },
    "Number of Reviews": 578,
    "Rating": 4.0,
    "Zip Code": "11102",
    "CuisineType": {
      "S": "indian"
    },
    "InsertedAtTimestamp": {
      "N": "1697590581.701701"
    }
  },
  {
    "Business ID": "D_xGTuIZqh1g6ie9QybcYw",
    "Name": "Bawarchi Indian Cuisine",
    "Address": "1546 Madison Ave",
    "Coordinates": {
      "Latitude": 40.792804,
      "Longitude": -73.950393
    },
    "Number of Reviews": 133,
    "Rating": 4.0,
    "Zip Code": "10029",
    "CuisineType": {
      "S": "indian"
    },
    "InsertedAtTimestamp": {
      "N": "1697590581.702427"
    }
  },
  {
    "Business ID": "ZRzG614HER-6fhZ3-MrEHw",
    "Name": "TAGMO",
    "Address": "226 Front St",
    "Coordinates": {
      "Latitude": 40.70762,
      "Longitude": -74.00214
    },
    "Number of Reviews": 74,
    "Rating": 4.0,
    "Zip Code": "10038",
    "CuisineType": {
      "S": "indian"
    },
    "InsertedAtTimestamp": {
      "N": "1697590581.702454"
    }
  },
  {
    "Business ID": "EPHhPGDFvnq2ARTBxAikuw",
    "Name": "Milon",
    "Address": "93 1st Ave",
    "Coordinates": {
      "Latitude": 40.726322,
      "Longitude": -73.986648
    },
    "Number of Reviews": 518,
    "Rating": 3.5,
    "Zip Code": "10003",
    "CuisineType": {
      "S": "indian"
    },
    "InsertedAtTimestamp": {
      "N": "1697590581.702476"
    }
  },
  {
    "Business ID": "8vYGvXF4OyKv2KV0-iIxrA",
    "Name": "Tikka Indian Grill",
    "Address": "34-14 30th Ave",
    "Coordinates": {
      "Latitude": 40.76534,
      "Longitude": -73.91868
    },
    "Number of Reviews": 323,
    "Rating": 4.5,
    "Zip Code": "11103",
    "CuisineType": {
      "S": "indian"
    },
    "InsertedAtTimestamp": {
      "N": "1697590581.702498"
    }
  },
  {
    "Business ID": "wSCZdZgMG_SXAh0AwxHw9Q",
    "Name": "Ammi",
    "Address": "25 11th Ave",
    "Coordinates": {
      "Latitude": 40.74328740195657,
      "Longitude": -74.00910522916887
    },
    "Number of Reviews": 5,
    "Rating": 4.5,
    "Zip Code": "10011",
    "CuisineType": {
      "S": "indian"
    },
    "InsertedAtTimestamp": {
      "N": "1697590581.70252"
    }
  },
  {
    "Business ID": "WWpOWqOgS9ClYvxYVzR0lg",
    "Name": "Tikka Indian Grill",
    "Address": "185 Grand St",
    "Coordinates": {
      "Latitude": 40.71441,
      "Longitude": -73.96078
    },
    "Number of Reviews": 380,
    "Rating": 4.0,
    "Zip Code": "11211",
    "CuisineType": {
      "S": "indian"
    },
    "InsertedAtTimestamp": {
      "N": "1697590581.702542"
    }
  },
  {
    "Business ID": "NhBUzlITbu3rdjm9UEfWsw",
    "Name": "Raj's Indian Kitchen",
    "Address": "42-12 28th St",
    "Coordinates": {
      "Latitude": 40.74956171352732,
      "Longitude": -73.93954799532425
    },
    "Number of Reviews": 352,
    "Rating": 4.0,
    "Zip Code": "11101",
    "CuisineType": {
      "S": "indian"
    },
    "InsertedAtTimestamp": {
      "N": "1697590581.702565"
    }
  },
  {
    "Business ID": "x3NeZ4xToUxVKDoZ32D5tg",
    "Name": "NY Dosas",
    "Address": "50 Washington Sq S",
    "Coordinates": {
      "Latitude": 40.73057418711454,
      "Longitude": -73.99883669999876
    },
    "Number of Reviews": 544,
    "Rating": 4.5,
    "Zip Code": "10014",
    "CuisineType": {
      "S": "indian"
    },
    "InsertedAtTimestamp": {
      "N": "1697590581.702588"
    }
  },
  {
    "Business ID": "FQi7AP2j9UYc1c-VTF00rA",
    "Name": "Wok In The Clouds",
    "Address": "127 E 28th St",
    "Coordinates": {
      "Latitude": 40.7429,
      "Longitude": -73.9828
    },
    "Number of Reviews": 31,
    "Rating": 4.5,
    "Zip Code": "10016",
    "CuisineType": {
      "S": "indian"
    },
    "InsertedAtTimestamp": {
      "N": "1697590581.70261"
    }
  },
  {
    "Business ID": "yV7brOiTLS3Lmwws8e3nXA",
    "Name": "Dil-e Punjab Deli",
    "Address": "170 9th Ave",
    "Coordinates": {
      "Latitude": 40.74482,
      "Longitude": -74.00206
    },
    "Number of Reviews": 215,
    "Rating": 4.5,
    "Zip Code": "10011",
    "CuisineType": {
      "S": "indian"
    },
    "InsertedAtTimestamp": {
      "N": "1697590581.702632"
    }
  },
  {
    "Business ID": "NKI1VvfXYluRjnq4S6yEuw",
    "Name": "Divya's Kitchen",
    "Address": "25 1st Ave",
    "Coordinates": {
      "Latitude": 40.72378,
      "Longitude": -73.98849
    },
    "Number of Reviews": 477,
    "Rating": 4.5,
    "Zip Code": "10003",
    "CuisineType": {
      "S": "indian"
    },
    "InsertedAtTimestamp": {
      "N": "1697590581.70267"
    }
  },
  {
    "Business ID": "B55Ocx5RBWxo6AGSucYSIA",
    "Name": "ilili Restaurant",
    "Address": "236 5th Ave",
    "Coordinates": {
      "Latitude": 40.74435,
      "Longitude": -73.98778
    },
    "Number of Reviews": 2746,
    "Rating": 4.0,
    "Zip Code": "10001",
    "CuisineType": {
      "S": "indian"
    },
    "InsertedAtTimestamp": {
      "N": "1697590581.702709"
    }
  },
  {
    "Business ID": "lIE4KHySIenwPbta1JuM8Q",
    "Name": "Mumbai Masala",
    "Address": "1768 Amsterdam Ave",
    "Coordinates": {
      "Latitude": 40.82695,
      "Longitude": -73.94676
    },
    "Number of Reviews": 289,
    "Rating": 4.5,
    "Zip Code": "10031",
    "CuisineType": {
      "S": "indian"
    },
    "InsertedAtTimestamp": {
      "N": "1697590581.702732"
    }
  },
  {
    "Business ID": "fFkqEyupjc5x2iJQIPcpLw",
    "Name": "Ruffian",
    "Address": "125 E 7th St",
    "Coordinates": {
      "Latitude": 40.7264,
      "Longitude": -73.98411
    },
    "Number of Reviews": 270,
    "Rating": 4.5,
    "Zip Code": "10009",
    "CuisineType": {
      "S": "indian"
    },
    "InsertedAtTimestamp": {
      "N": "1697590581.702754"
    }
  },
  {
    "Business ID": "mHRu4KZXYM_RwyFXBGncsA",
    "Name": "INDAY All Day",
    "Address": "658 Driggs Ave",
    "Coordinates": {
      "Latitude": 40.71471,
      "Longitude": -73.95921
    },
    "Number of Reviews": 55,
    "Rating": 4.5,
    "Zip Code": "11211",
    "CuisineType": {
      "S": "indian"
    },
    "InsertedAtTimestamp": {
      "N": "1697590581.702783"
    }
  },
  {
    "Business ID": "Gxlxu7Rug2tM_V7sS4x6fQ",
    "Name": "Tadka Indian Cuisine",
    "Address": "13-15 43rd Ave",
    "Coordinates": {
      "Latitude": 40.75096,
      "Longitude": -73.94578
    },
    "Number of Reviews": 39,
    "Rating": 4.0,
    "Zip Code": "11101",
    "CuisineType": {
      "S": "indian"
    },
    "InsertedAtTimestamp": {
      "N": "1697590581.702806"
    }
  },
  {
    "Business ID": "zi4fUgOwwGB5PYR2xq0OCQ",
    "Name": "Namaste India",
    "Address": "880 River Rd",
    "Coordinates": {
      "Latitude": 40.82533,
      "Longitude": -73.97495
    },
    "Number of Reviews": 332,
    "Rating": 4.0,
    "Zip Code": "07020",
    "CuisineType": {
      "S": "indian"
    },
    "InsertedAtTimestamp": {
      "N": "1697590581.702828"
    }
  },
  {
    "Business ID": "ByJBXa3HwPqw8eSPfDObkg",
    "Name": "Mint Heights",
    "Address": "46 Henry St",
    "Coordinates": {
      "Latitude": 40.699657772028765,
      "Longitude": -73.99217437260721
    },
    "Number of Reviews": 113,
    "Rating": 4.5,
    "Zip Code": "11201",
    "CuisineType": {
      "S": "indian"
    },
    "InsertedAtTimestamp": {
      "N": "1697590581.702849"
    }
  },
  {
    "Business ID": "yx8cpBwPttpdBvm4V1EawQ",
    "Name": "Joy Curry & Tandoor",
    "Address": "148 E 46th St",
    "Coordinates": {
      "Latitude": 40.75352,
      "Longitude": -73.9736117202377
    },
    "Number of Reviews": 238,
    "Rating": 4.0,
    "Zip Code": "10017",
    "CuisineType": {
      "S": "indian"
    },
    "InsertedAtTimestamp": {
      "N": "1697590581.702882"
    }
  },
  {
    "Business ID": "niivJKBqY5wToDukqZHetQ",
    "Name": "Karma Kafe",
    "Address": "505 Washington St",
    "Coordinates": {
      "Latitude": 40.74238,
      "Longitude": -74.02909
    },
    "Number of Reviews": 788,
    "Rating": 4.0,
    "Zip Code": "07030",
    "CuisineType": {
      "S": "indian"
    },
    "InsertedAtTimestamp": {
      "N": "1697590581.702904"
    }
  },
  {
    "Business ID": "xWUL-j6TQyKQHIfOtetu-Q",
    "Name": "HanGawi",
    "Address": "12 E 32nd St",
    "Coordinates": {
      "Latitude": 40.746612323020926,
      "Longitude": -73.98476051936564
    },
    "Number of Reviews": 1383,
    "Rating": 4.0,
    "Zip Code": "10016",
    "CuisineType": {
      "S": "indian"
    },
    "InsertedAtTimestamp": {
      "N": "1697590581.702926"
    }
  },
  {
    "Business ID": "hR7Epr9dAQpCCW9Q1SnZwQ",
    "Name": "Pataka",
    "Address": "40-05 Skillman Ave",
    "Coordinates": {
      "Latitude": 40.74746115277219,
      "Longitude": -73.92321919999999
    },
    "Number of Reviews": 77,
    "Rating": 5.0,
    "Zip Code": "11104",
    "CuisineType": {
      "S": "indian"
    },
    "InsertedAtTimestamp": {
      "N": "1697590581.702948"
    }
  },
  {
    "Business ID": "HFIu45xr93jqchnN1YVJeQ",
    "Name": "Masalawala & Sons",
    "Address": "365 5th Ave",
    "Coordinates": {
      "Latitude": 40.67148382626093,
      "Longitude": -73.9842655
    },
    "Number of Reviews": 94,
    "Rating": 4.0,
    "Zip Code": "11215",
    "CuisineType": {
      "S": "indian"
    },
    "InsertedAtTimestamp": {
      "N": "1697590581.702975"
    }
  },
  {
    "Business ID": "-C0NqgITsdu5Oet0eFQNbg",
    "Name": "Laree Adda",
    "Address": "287 Grove St",
    "Coordinates": {
      "Latitude": 40.718138,
      "Longitude": -74.044042
    },
    "Number of Reviews": 135,
    "Rating": 4.0,
    "Zip Code": "07302",
    "CuisineType": {
      "S": "indian"
    },
    "InsertedAtTimestamp": {
      "N": "1697590581.702997"
    }
  },
  {
    "Business ID": "HM7Mz6Hpxts58JJP7qELNQ",
    "Name": "Eggmania",
    "Address": "14 Liberty Ave",
    "Coordinates": {
      "Latitude": 40.7360784317498,
      "Longitude": -74.0648451989719
    },
    "Number of Reviews": 341,
    "Rating": 4.0,
    "Zip Code": "07306",
    "CuisineType": {
      "S": "indian"
    },
    "InsertedAtTimestamp": {
      "N": "1697590581.703099"
    }
  },
  {
    "Business ID": "3Fk5JCRQK78fVVjbqEgbMg",
    "Name": "Amma Grill",
    "Address": "349 E 109th St",
    "Coordinates": {
      "Latitude": 40.791831,
      "Longitude": -73.93892
    },
    "Number of Reviews": 3,
    "Rating": 5.0,
    "Zip Code": "10029",
    "CuisineType": {
      "S": "indian"
    },
    "InsertedAtTimestamp": {
      "N": "1697590581.703121"
    }
  },
  {
    "Business ID": "bgMbt6XbOaAu5VNXr5kCdQ",
    "Name": "Polash",
    "Address": "2179 3rd Ave",
    "Coordinates": {
      "Latitude": 40.79965,
      "Longitude": -73.93855
    },
    "Number of Reviews": 233,
    "Rating": 4.0,
    "Zip Code": "10035",
    "CuisineType": {
      "S": "indian"
    },
    "InsertedAtTimestamp": {
      "N": "1697590581.703144"
    }
  },
  {
    "Business ID": "tfGKVbzMHq4mhVBzrDnVWQ",
    "Name": "Lahori Kabab Restaurant",
    "Address": "106 Lexington Ave",
    "Coordinates": {
      "Latitude": 40.742411,
      "Longitude": -73.9829868
    },
    "Number of Reviews": 102,
    "Rating": 3.5,
    "Zip Code": "10016",
    "CuisineType": {
      "S": "indian"
    },
    "InsertedAtTimestamp": {
      "N": "1697590581.703165"
    }
  },
  {
    "Business ID": "icb_B-WaQm_T38MpQHsLcA",
    "Name": "Goa New York",
    "Address": "78 Leonard St",
    "Coordinates": {
      "Latitude": 40.71733,
      "Longitude": -74.0052
    },
    "Number of Reviews": 83,
    "Rating": 3.5,
    "Zip Code": "10013",
    "CuisineType": {
      "S": "indian"
    },
    "InsertedAtTimestamp": {
      "N": "1697590581.703187"
    }
  },
  {
    "Business ID": "NzU2hb0z0jGEOOv0-zTLEQ",
    "Name": "Sigiri",
    "Address": "91 1st Ave",
    "Coordinates": {
      "Latitude": 40.726261,
      "Longitude": -73.986686
    },
    "Number of Reviews": 664,
    "Rating": 4.0,
    "Zip Code": "10003",
    "CuisineType": {
      "S": "indian"
    },
    "InsertedAtTimestamp": {
      "N": "1697590581.703209"
    }
  },
  {
    "Business ID": "LNhrLmbt65wx2aBSYn77nQ",
    "Name": "Indian Paratha Gali",
    "Address": "40-05 Skillman Ave",
    "Coordinates": {
      "Latitude": 40.747425,
      "Longitude": -73.923214
    },
    "Number of Reviews": 6,
    "Rating": 5.0,
    "Zip Code": "11104",
    "CuisineType": {
      "S": "indian"
    },
    "InsertedAtTimestamp": {
      "N": "1697590581.703245"
    }
  },
  {
    "Business ID": "VMSO12sjs6W415PSogC7PA",
    "Name": "Paratha Junction",
    "Address": "779 Newark Ave",
    "Coordinates": {
      "Latitude": 40.7352836673254,
      "Longitude": -74.0638660967438
    },
    "Number of Reviews": 181,
    "Rating": 3.0,
    "Zip Code": "07306",
    "CuisineType": {
      "S": "indian"
    },
    "InsertedAtTimestamp": {
      "N": "1697590581.703268"
    }
  },
  {
    "Business ID": "9heTBCW1DDAKyO0GrY3Nxw",
    "Name": "Delhi Masala",
    "Address": "2077 Adam Clayton Powell Jr Blvd",
    "Coordinates": {
      "Latitude": 40.80799,
      "Longitude": -73.94856
    },
    "Number of Reviews": 187,
    "Rating": 4.0,
    "Zip Code": "10027",
    "CuisineType": {
      "S": "indian"
    },
    "InsertedAtTimestamp": {
      "N": "1697590581.70329"
    }
  },
  {
    "Business ID": "0s8rxDQhglhh28BLz-80qw",
    "Name": "Mysttik Masaala",
    "Address": "90 Park Ave",
    "Coordinates": {
      "Latitude": 40.75074,
      "Longitude": -73.97936
    },
    "Number of Reviews": 22,
    "Rating": 4.5,
    "Zip Code": "10016",
    "CuisineType": {
      "S": "indian"
    },
    "InsertedAtTimestamp": {
      "N": "1697590581.703312"
    }
  },
  {
    "Business ID": "MtZaEGCm6zdAV8W4TWlerQ",
    "Name": "Masti Indian Grill & Chatt Bar",
    "Address": "184 Havemeyer St",
    "Coordinates": {
      "Latitude": 40.710625,
      "Longitude": -73.9583
    },
    "Number of Reviews": 124,
    "Rating": 4.5,
    "Zip Code": "11211",
    "CuisineType": {
      "S": "indian"
    },
    "InsertedAtTimestamp": {
      "N": "1697590581.703333"
    }
  },
  {
    "Business ID": "8AM1gGIk6KVb27Q9TYwD9Q",
    "Name": "Green Symphony",
    "Address": "255 W 43rd St",
    "Coordinates": {
      "Latitude": 40.75796,
      "Longitude": -73.988714
    },
    "Number of Reviews": 478,
    "Rating": 4.0,
    "Zip Code": "10036",
    "CuisineType": {
      "S": "indian"
    },
    "InsertedAtTimestamp": {
      "N": "1697590581.703356"
    }
  },
  {
    "Business ID": "j0Q-yyxS2WiL3foCJEV4eg",
    "Name": "Dirt Candy",
    "Address": "86 Allen St",
    "Coordinates": {
      "Latitude": 40.7179075,
      "Longitude": -73.9907183
    },
    "Number of Reviews": 817,
    "Rating": 4.0,
    "Zip Code": "10002",
    "CuisineType": {
      "S": "indian"
    },
    "InsertedAtTimestamp": {
      "N": "1697590581.703377"
    }
  },
  {
    "Business ID": "lIXVm16VchbDXOf7v4hxMA",
    "Name": "Haandi",
    "Address": "113 Lexington Ave",
    "Coordinates": {
      "Latitude": 40.7424,
      "Longitude": -73.98237
    },
    "Number of Reviews": 338,
    "Rating": 3.5,
    "Zip Code": "10016",
    "CuisineType": {
      "S": "indian"
    },
    "InsertedAtTimestamp": {
      "N": "1697590581.703399"
    }
  },
  {
    "Business ID": "7G-Ud62Mpi-YhEjQOjCHhg",
    "Name": "Cumin N Eat",
    "Address": "700 Plaza Dr",
    "Coordinates": {
      "Latitude": 40.785867,
      "Longitude": -74.044791
    },
    "Number of Reviews": 172,
    "Rating": 4.5,
    "Zip Code": "07094",
    "CuisineType": {
      "S": "indian"
    },
    "InsertedAtTimestamp": {
      "N": "1697590581.703421"
    }
  },
  {
    "Business ID": "DOdbSGm9ULZlVz-1-Jjhmg",
    "Name": "Chote Nawab",
    "Address": "115 Lexington Ave",
    "Coordinates": {
      "Latitude": 40.742462,
      "Longitude": -73.982322
    },
    "Number of Reviews": 599,
    "Rating": 3.5,
    "Zip Code": "10016",
    "CuisineType": {
      "S": "indian"
    },
    "InsertedAtTimestamp": {
      "N": "1697590581.703443"
    }
  },
  {
    "Business ID": "PEEw2ip9VrmiMBP4b6op_g",
    "Name": "Govinda's Vegetarian Lunch",
    "Address": "305 Schermerhorn St",
    "Coordinates": {
      "Latitude": 40.68771,
      "Longitude": -73.98241
    },
    "Number of Reviews": 185,
    "Rating": 4.5,
    "Zip Code": "11217",
    "CuisineType": {
      "S": "indian"
    },
    "InsertedAtTimestamp": {
      "N": "1697590581.703465"
    }
  },
  {
    "Business ID": "7YJxZAvMxB-oVZfHAuvBmw",
    "Name": "Lakruwana Restaurant",
    "Address": "668 Bay St",
    "Coordinates": {
      "Latitude": 40.62571,
      "Longitude": -74.075373
    },
    "Number of Reviews": 430,
    "Rating": 4.5,
    "Zip Code": "10304",
    "CuisineType": {
      "S": "indian"
    },
    "InsertedAtTimestamp": {
      "N": "1697590581.703491"
    }
  },
  {
    "Business ID": "ATrDmKiZ-YrAcG3hR7LLgg",
    "Name": "Tadka Fine Indian Cuisine",
    "Address": "1297 Paterson Plank Rd",
    "Coordinates": {
      "Latitude": 40.79015,
      "Longitude": -74.05819
    },
    "Number of Reviews": 136,
    "Rating": 3.5,
    "Zip Code": "07094",
    "CuisineType": {
      "S": "indian"
    },
    "InsertedAtTimestamp": {
      "N": "1697590581.703512"
    }
  },
  {
    "Business ID": "_Hig4rf_SEAhq13eBdJ4CQ",
    "Name": "Kismat Indian Restaurant",
    "Address": "603 Fort Washington Ave",
    "Coordinates": {
      "Latitude": 40.85533018425771,
      "Longitude": -73.9370321
    },
    "Number of Reviews": 398,
    "Rating": 3.5,
    "Zip Code": "10040",
    "CuisineType": {
      "S": "indian"
    },
    "InsertedAtTimestamp": {
      "N": "1697590581.703534"
    }
  },
  {
    "Business ID": "qTJvCBgticMA-opC6P6yzg",
    "Name": "Rang",
    "Address": "11-03 44th Ave",
    "Coordinates": {
      "Latitude": 40.7500749267213,
      "Longitude": -73.94893907411615
    },
    "Number of Reviews": 19,
    "Rating": 4.5,
    "Zip Code": "11101",
    "CuisineType": {
      "S": "indian"
    },
    "InsertedAtTimestamp": {
      "N": "1697590581.703565"
    }
  },
  {
    "Business ID": "nBoOm-TAhRvbcDkHfKOwGg",
    "Name": "Swagat Indian Restaurant",
    "Address": "205 W 29th St",
    "Coordinates": {
      "Latitude": 40.748161,
      "Longitude": -73.993194
    },
    "Number of Reviews": 115,
    "Rating": 3.0,
    "Zip Code": "10001",
    "CuisineType": {
      "S": "indian"
    },
    "InsertedAtTimestamp": {
      "N": "1697590581.703588"
    }
  },
  {
    "Business ID": "1_AQYSCRFn3KCsZ50m5ymQ",
    "Name": "Manhattan Halal Restaurant",
    "Address": "156 W 29th St",
    "Coordinates": {
      "Latitude": 40.7473849,
      "Longitude": -73.9923965
    },
    "Number of Reviews": 2,
    "Rating": 4.0,
    "Zip Code": "10001",
    "CuisineType": {
      "S": "indian"
    },
    "InsertedAtTimestamp": {
      "N": "1697590581.70361"
    }
  },
  {
    "Business ID": "JZ45uaCB6SLBYng22_dplQ",
    "Name": "Lasani",
    "Address": "539 9th Ave",
    "Coordinates": {
      "Latitude": 40.757074,
      "Longitude": -73.993915
    },
    "Number of Reviews": 31,
    "Rating": 4.0,
    "Zip Code": "10018",
    "CuisineType": {
      "S": "indian"
    },
    "InsertedAtTimestamp": {
      "N": "1697590581.703631"
    }
  },
  {
    "Business ID": "vzWzMCmb5U2vOmrcOV_V2A",
    "Name": "Khazana Indian Restaurant",
    "Address": "10-57 Jackson Ave",
    "Coordinates": {
      "Latitude": 40.74277,
      "Longitude": -73.95271
    },
    "Number of Reviews": 2,
    "Rating": 4.5,
    "Zip Code": "11101",
    "CuisineType": {
      "S": "indian"
    },
    "InsertedAtTimestamp": {
      "N": "1697590581.703732"
    }
  },
  {
    "Business ID": "gsZUN1Vtpd3P7rdvANbrmg",
    "Name": "Indian Kitchen",
    "Address": "739 Grand St",
    "Coordinates": {
      "Latitude": 40.711924,
      "Longitude": -73.943326
    },
    "Number of Reviews": 218,
    "Rating": 4.0,
    "Zip Code": "11211",
    "CuisineType": {
      "S": "indian"
    },
    "InsertedAtTimestamp": {
      "N": "1697590581.703754"
    }
  },
  {
    "Business ID": "9x95RpLEIDRWG2Y9w4qz4Q",
    "Name": "INDAY",
    "Address": "708 3rd Ave",
    "Coordinates": {
      "Latitude": 40.75233,
      "Longitude": -73.97353
    },
    "Number of Reviews": 138,
    "Rating": 4.0,
    "Zip Code": "10017",
    "CuisineType": {
      "S": "indian"
    },
    "InsertedAtTimestamp": {
      "N": "1697590581.703788"
    }
  },
  {
    "Business ID": "tzjjjhNUPDzaa8_kkvcDQg",
    "Name": "Empyrean Indian Kitchen & Bar",
    "Address": "20 Hudson Pl",
    "Coordinates": {
      "Latitude": 40.736066251998736,
      "Longitude": -74.02880689096021
    },
    "Number of Reviews": 192,
    "Rating": 4.5,
    "Zip Code": "07030",
    "CuisineType": {
      "S": "indian"
    },
    "InsertedAtTimestamp": {
      "N": "1697590581.703812"
    }
  },
  {
    "Business ID": "U3hvDT5CtQrnpg2zhJg3mQ",
    "Name": "Kashmir 9 - Cuisine of Pakistan",
    "Address": "478 9th Ave",
    "Coordinates": {
      "Latitude": 40.7549782340085,
      "Longitude": -73.9948511123657
    },
    "Number of Reviews": 224,
    "Rating": 3.5,
    "Zip Code": "10018",
    "CuisineType": {
      "S": "indian"
    },
    "InsertedAtTimestamp": {
      "N": "1697590581.703842"
    }
  },
  {
    "Business ID": "FZ0fKxW-d6Qc70IjDQIQKA",
    "Name": "My Biryani",
    "Address": "1133 6th avenue , 44th street",
    "Coordinates": {
      "Latitude": 40.75605,
      "Longitude": -73.98386
    },
    "Number of Reviews": 17,
    "Rating": 4.5,
    "Zip Code": "10036",
    "CuisineType": {
      "S": "indian"
    },
    "InsertedAtTimestamp": {
      "N": "1697590581.703864"
    }
  },
  {
    "Business ID": "ml3ASw5_B5XLnd9kE8xx3g",
    "Name": "Salt & Pepper",
    "Address": "139 W 33rd St",
    "Coordinates": {
      "Latitude": 40.7498789,
      "Longitude": -73.9900547
    },
    "Number of Reviews": 100,
    "Rating": 3.0,
    "Zip Code": "10001",
    "CuisineType": {
      "S": "indian"
    },
    "InsertedAtTimestamp": {
      "N": "1697590581.703886"
    }
  },
  {
    "Business ID": "fjjzAn0j6zCs2SNViuNfwQ",
    "Name": "Kailash Parbat",
    "Address": "99 Lexington Ave",
    "Coordinates": {
      "Latitude": 40.74206,
      "Longitude": -73.98273
    },
    "Number of Reviews": 370,
    "Rating": 3.5,
    "Zip Code": "10016",
    "CuisineType": {
      "S": "indian"
    },
    "InsertedAtTimestamp": {
      "N": "1697590581.703908"
    }
  },
  {
    "Business ID": "4x4M_p_b8GvLkc4fe00GHA",
    "Name": "Biryani House Cart",
    "Address": "140 Broadway",
    "Coordinates": {
      "Latitude": 40.70865,
      "Longitude": -74.01011
    },
    "Number of Reviews": 168,
    "Rating": 4.0,
    "Zip Code": "10005",
    "CuisineType": {
      "S": "indian"
    },
    "InsertedAtTimestamp": {
      "N": "1697590581.703937"
    }
  },
  {
    "Business ID": "dxK7_NNqLDYG39VGZI9B3w",
    "Name": "Himalayan Curry House",
    "Address": "254 W 108th St",
    "Coordinates": {
      "Latitude": 40.8023275567219,
      "Longitude": -73.9662716345275
    },
    "Number of Reviews": 75,
    "Rating": 4.0,
    "Zip Code": "10025",
    "CuisineType": {
      "S": "indian"
    },
    "InsertedAtTimestamp": {
      "N": "1697590581.703959"
    }
  },
  {
    "Business ID": "FhXBKrLHyK7np4d0_f1s-w",
    "Name": "Swadist Restaurant",
    "Address": "715 Newark Ave",
    "Coordinates": {
      "Latitude": 40.734995,
      "Longitude": -74.061407
    },
    "Number of Reviews": 204,
    "Rating": 4.5,
    "Zip Code": "07306",
    "CuisineType": {
      "S": "indian"
    },
    "InsertedAtTimestamp": {
      "N": "1697590581.703982"
    }
  },
  {
    "Business ID": "h0Z2RZBZbiqS-Yw22WyTaQ",
    "Name": "Maharaja Palace",
    "Address": "2113 Frederick Douglass Blvd",
    "Coordinates": {
      "Latitude": 40.8033065717907,
      "Longitude": -73.9562846158103
    },
    "Number of Reviews": 184,
    "Rating": 3.5,
    "Zip Code": "10026",
    "CuisineType": {
      "S": "indian"
    },
    "InsertedAtTimestamp": {
      "N": "1697590581.704004"
    }
  },
  {
    "Business ID": "rp_TaJRjaNmOCb8vJ2S_sw",
    "Name": "Blossom on Columbus",
    "Address": "507 Columbus Ave Flr Grd",
    "Coordinates": {
      "Latitude": 40.78537,
      "Longitude": -73.97282
    },
    "Number of Reviews": 519,
    "Rating": 4.0,
    "Zip Code": "10024",
    "CuisineType": {
      "S": "indian"
    },
    "InsertedAtTimestamp": {
      "N": "1697590581.704027"
    }
  },
  {
    "Business ID": "EbX_9tqAJs4gW51gZpOB7g",
    "Name": "Rasa",
    "Address": "25 W 8th St",
    "Coordinates": {
      "Latitude": 40.7327654,
      "Longitude": -73.9975674
    },
    "Number of Reviews": 850,
    "Rating": 4.0,
    "Zip Code": "10011",
    "CuisineType": {
      "S": "indian"
    },
    "InsertedAtTimestamp": {
      "N": "1697590581.704049"
    }
  },
  {
    "Business ID": "6yDDPOliaxgPjiv97JVPuA",
    "Name": "Fresh Curry",
    "Address": "183 Church St",
    "Coordinates": {
      "Latitude": 40.715694571538535,
      "Longitude": -74.00709572779189
    },
    "Number of Reviews": 6,
    "Rating": 4.0,
    "Zip Code": "10007",
    "CuisineType": {
      "S": "indian"
    },
    "InsertedAtTimestamp": {
      "N": "1697590581.704072"
    }
  },
  {
    "Business ID": "YDtIHtfvWd4W36wq6UAjoA",
    "Name": "Kitchen Grill",
    "Address": "914 A Fulton St",
    "Coordinates": {
      "Latitude": 40.6827929,
      "Longitude": -73.9644377
    },
    "Number of Reviews": 334,
    "Rating": 4.5,
    "Zip Code": "11238",
    "CuisineType": {
      "S": "indian"
    },
    "InsertedAtTimestamp": {
      "N": "1697590581.704094"
    }
  },
  {
    "Business ID": "XUataECnaOfdo4a87NqEFg",
    "Name": "Samudra",
    "Address": "75-18 37th Ave",
    "Coordinates": {
      "Latitude": 40.7490953,
      "Longitude": -73.8903772
    },
    "Number of Reviews": 632,
    "Rating": 4.0,
    "Zip Code": "11372",
    "CuisineType": {
      "S": "indian"
    },
    "InsertedAtTimestamp": {
      "N": "1697590581.704117"
    }
  },
  {
    "Business ID": "wQjQHZKH_DxwntbSe1QdxQ",
    "Name": "Brick Lane Curry House",
    "Address": "79 2nd Ave",
    "Coordinates": {
      "Latitude": 40.7265407754881,
      "Longitude": -73.9893999248542
    },
    "Number of Reviews": 1009,
    "Rating": 3.5,
    "Zip Code": "10003",
    "CuisineType": {
      "S": "indian"
    },
    "InsertedAtTimestamp": {
      "N": "1697590581.704138"
    }
  },
  {
    "Business ID": "o5sUOmtzcHAeSWtUuFJ00g",
    "Name": "Anjappar Chettinad Restaurant",
    "Address": "116 Lexington Ave",
    "Coordinates": {
      "Latitude": 40.742603,
      "Longitude": -73.982795
    },
    "Number of Reviews": 383,
    "Rating": 3.5,
    "Zip Code": "10016",
    "CuisineType": {
      "S": "indian"
    },
    "InsertedAtTimestamp": {
      "N": "1697590581.70416"
    }
  },
  {
    "Business ID": "YM5AbOOg-TjuHJrQmfd0Hw",
    "Name": "Desi Galli",
    "Address": "101 Lexington Ave",
    "Coordinates": {
      "Latitude": 40.74211,
      "Longitude": -73.9826
    },
    "Number of Reviews": 338,
    "Rating": 3.5,
    "Zip Code": "10016",
    "CuisineType": {
      "S": "indian"
    },
    "InsertedAtTimestamp": {
      "N": "1697590581.704194"
    }
  },
  {
    "Business ID": "e5c8jGklVNKoaURcDsVxgQ",
    "Name": "Curry Up Now",
    "Address": "91 Washington St",
    "Coordinates": {
      "Latitude": 40.737095,
      "Longitude": -74.030759
    },
    "Number of Reviews": 259,
    "Rating": 4.0,
    "Zip Code": "07030",
    "CuisineType": {
      "S": "indian"
    },
    "InsertedAtTimestamp": {
      "N": "1697590581.704216"
    }
  },
  {
    "Business ID": "YJ88ZwMU499QfkD52qSJBw",
    "Name": "Brick Lane Curry House",
    "Address": "136 Newark Ave",
    "Coordinates": {
      "Latitude": 40.72046,
      "Longitude": -74.04345
    },
    "Number of Reviews": 119,
    "Rating": 4.0,
    "Zip Code": "07302",
    "CuisineType": {
      "S": "indian"
    },
    "InsertedAtTimestamp": {
      "N": "1697590581.704237"
    }
  },
  {
    "Business ID": "Rk6TXh7nINbzJoGtI2C5cA",
    "Name": "Desi Galli",
    "Address": "172 Avenue B",
    "Coordinates": {
      "Latitude": 40.72739,
      "Longitude": -73.97978
    },
    "Number of Reviews": 141,
    "Rating": 3.5,
    "Zip Code": "10009",
    "CuisineType": {
      "S": "indian"
    },
    "InsertedAtTimestamp": {
      "N": "1697590581.704276"
    }
  },
  {
    "Business ID": "9DceMTrjyVqBgQRqgR6GWw",
    "Name": "Red Bamboo",
    "Address": "140 W 4th St",
    "Coordinates": {
      "Latitude": 40.7311846,
      "Longitude": -74.00042619999999
    },
    "Number of Reviews": 1841,
    "Rating": 4.0,
    "Zip Code": "10012",
    "CuisineType": {
      "S": "indian"
    },
    "InsertedAtTimestamp": {
      "N": "1697590581.704298"
    }
  },
  {
    "Business ID": "KhzQ-9jzOLOtrKXSxoC-uw",
    "Name": "Bombay Grill",
    "Address": "155 8th Ave",
    "Coordinates": {
      "Latitude": 40.74218,
      "Longitude": -74.001106
    },
    "Number of Reviews": 1,
    "Rating": 5.0,
    "Zip Code": "10011",
    "CuisineType": {
      "S": "indian"
    },
    "InsertedAtTimestamp": {
      "N": "1697590581.7044"
    }
  },
  {
    "Business ID": "1SgiWHlFN5mp5gNLSGx2Ww",
    "Name": "Panna II Garden Indian Restaurant",
    "Address": "93 1st Ave",
    "Coordinates": {
      "Latitude": 40.726326,
      "Longitude": -73.986556
    },
    "Number of Reviews": 1175,
    "Rating": 3.0,
    "Zip Code": "10003",
    "CuisineType": {
      "S": "indian"
    },
    "InsertedAtTimestamp": {
      "N": "1697590581.704423"
    }
  },
  {
    "Business ID": "3rZwXDjkyDLAHNSdPUI5WA",
    "Name": "Korai Kitchen",
    "Address": "576 Summit Ave",
    "Coordinates": {
      "Latitude": 40.733896,
      "Longitude": -74.059151
    },
    "Number of Reviews": 332,
    "Rating": 5.0,
    "Zip Code": "07306",
    "CuisineType": {
      "S": "indian"
    },
    "InsertedAtTimestamp": {
      "N": "1697590581.704445"
    }
  },
  {
    "Business ID": "aqqryBys95aNjYqri9OmJg",
    "Name": "Bricklane Curry House",
    "Address": "40-05 Skillman Ave",
    "Coordinates": {
      "Latitude": 40.747467,
      "Longitude": -73.92322
    },
    "Number of Reviews": 1,
    "Rating": 5.0,
    "Zip Code": "11104",
    "CuisineType": {
      "S": "indian"
    },
    "InsertedAtTimestamp": {
      "N": "1697590581.704466"
    }
  },
  {
    "Business ID": "Y8ZCMr7vNMspTjEi6VWgxA",
    "Name": "Taco Mahal",
    "Address": "653 9th Ave",
    "Coordinates": {
      "Latitude": 40.76091684980952,
      "Longitude": -73.9912468
    },
    "Number of Reviews": 134,
    "Rating": 4.0,
    "Zip Code": "10036",
    "CuisineType": {
      "S": "indian"
    },
    "InsertedAtTimestamp": {
      "N": "1697590581.704488"
    }
  },
  {
    "Business ID": "ODpSYoZ8fkaX3UaDzBLhsg",
    "Name": "Kamal Palace",
    "Address": "623 Ridge Rd",
    "Coordinates": {
      "Latitude": 40.798642,
      "Longitude": -74.126354
    },
    "Number of Reviews": 262,
    "Rating": 4.0,
    "Zip Code": "07031",
    "CuisineType": {
      "S": "indian"
    },
    "InsertedAtTimestamp": {
      "N": "1697590581.70451"
    }
  },
  {
    "Business ID": "tM8ZtEix8Bxg82AIKsHXcw",
    "Name": "Zizi",
    "Address": "182 8th Ave",
    "Coordinates": {
      "Latitude": 40.74293,
      "Longitude": -74.00002
    },
    "Number of Reviews": 210,
    "Rating": 4.5,
    "Zip Code": "10011",
    "CuisineType": {
      "S": "indian"
    },
    "InsertedAtTimestamp": {
      "N": "1697590581.704531"
    }
  },
  {
    "Business ID": "Gni26uzPdfkCSagKEcFP2g",
    "Name": "Lore",
    "Address": "441 7th Ave",
    "Coordinates": {
      "Latitude": 40.66316670737584,
      "Longitude": -73.9845233117843
    },
    "Number of Reviews": 68,
    "Rating": 4.5,
    "Zip Code": "11215",
    "CuisineType": {
      "S": "indian"
    },
    "InsertedAtTimestamp": {
      "N": "1697590581.704554"
    }
  },
  {
    "Business ID": "noBCTbD1Ylf5QR7PXy-rkA",
    "Name": "Cafe Himalaya",
    "Address": "78 E 1st St",
    "Coordinates": {
      "Latitude": 40.7232289034083,
      "Longitude": -73.9879441220901
    },
    "Number of Reviews": 684,
    "Rating": 4.0,
    "Zip Code": "10009",
    "CuisineType": {
      "S": "indian"
    },
    "InsertedAtTimestamp": {
      "N": "1697590581.704576"
    }
  },
  {
    "Business ID": "zS4j95rR7PRdFdIfqD2Mmg",
    "Name": "Omar's Fine Cuisine",
    "Address": "568 Vanderbilt Ave",
    "Coordinates": {
      "Latitude": 40.67966,
      "Longitude": -73.96834
    },
    "Number of Reviews": 59,
    "Rating": 4.5,
    "Zip Code": "11238",
    "CuisineType": {
      "S": "indian"
    },
    "InsertedAtTimestamp": {
      "N": "1697590581.704604"
    }
  },
  {
    "Business ID": "Y6Q4uhE-GsP2iykSW9oJPw",
    "Name": "Rudra Indian Bistro",
    "Address": "561 Cedar Ln",
    "Coordinates": {
      "Latitude": 40.89044,
      "Longitude": -74.02528
    },
    "Number of Reviews": 100,
    "Rating": 4.5,
    "Zip Code": "07666",
    "CuisineType": {
      "S": "indian"
    },
    "InsertedAtTimestamp": {
      "N": "1697590581.704626"
    }
  },
  {
    "Business ID": "ZRJgyX4VqRhZUTWPrUXZ4w",
    "Name": "Bombay Masala Indian Restaurant",
    "Address": null,
    "Coordinates": {
      "Latitude": 40.73234558105469,
      "Longitude": -73.98785400390625
    },
    "Number of Reviews": 1,
    "Rating": 4.0,
    "Zip Code": "10003",
    "CuisineType": {
      "S": "indian"
    },
    "InsertedAtTimestamp": {
      "N": "1697590581.704648"
    }
  },
  {
    "Business ID": "1gK-0_lGqjxbwiHWcXXdzg",
    "Name": "abcV",
    "Address": "38 E 19th St",
    "Coordinates": {
      "Latitude": 40.738058,
      "Longitude": -73.989289
    },
    "Number of Reviews": 670,
    "Rating": 4.0,
    "Zip Code": "10003",
    "CuisineType": {
      "S": "indian"
    },
    "InsertedAtTimestamp": {
      "N": "1697590581.704671"
    }
  },
  {
    "Business ID": "6JNvLxm0PqgiuoiSXC9OOg",
    "Name": "Neem Indian Cuisine",
    "Address": "3549 Johnson Ave",
    "Coordinates": {
      "Latitude": 40.886547,
      "Longitude": -73.909968
    },
    "Number of Reviews": 105,
    "Rating": 4.0,
    "Zip Code": "10463",
    "CuisineType": {
      "S": "indian"
    },
    "InsertedAtTimestamp": {
      "N": "1697590581.704693"
    }
  },
  {
    "Business ID": "kB3QyyhHFVyhGgp35Rnuew",
    "Name": "The Kati Roll Company",
    "Address": "99 Macdougal St",
    "Coordinates": {
      "Latitude": 40.729633,
      "Longitude": -74.001038
    },
    "Number of Reviews": 928,
    "Rating": 3.5,
    "Zip Code": "10012",
    "CuisineType": {
      "S": "indian"
    },
    "InsertedAtTimestamp": {
      "N": "1697590581.704715"
    }
  },
  {
    "Business ID": "O5MN8tijDGzJS8uin9zQ2Q",
    "Name": "Chef Of India",
    "Address": "324 Central Ave",
    "Coordinates": {
      "Latitude": 40.74595,
      "Longitude": -74.04902
    },
    "Number of Reviews": 250,
    "Rating": 3.5,
    "Zip Code": "07307",
    "CuisineType": {
      "S": "indian"
    },
    "InsertedAtTimestamp": {
      "N": "1697590581.704734"
    }
  },
  {
    "Business ID": "JvV8sTgUX6abRQPzb3hLgg",
    "Name": "Asian Curry Hut",
    "Address": "534 9th Ave",
    "Coordinates": {
      "Latitude": 40.75674,
      "Longitude": -73.99347
    },
    "Number of Reviews": 130,
    "Rating": 3.5,
    "Zip Code": "10018",
    "CuisineType": {
      "S": "indian"
    },
    "InsertedAtTimestamp": {
      "N": "1697590581.704753"
    }
  },
  {
    "Business ID": "jUkSkpxsJxiTa5C-H5pnyw",
    "Name": "Tikka N Talk",
    "Address": "70-11 Austin St",
    "Coordinates": {
      "Latitude": 40.72097,
      "Longitude": -73.84639
    },
    "Number of Reviews": 131,
    "Rating": 4.5,
    "Zip Code": "11375",
    "CuisineType": {
      "S": "indian"
    },
    "InsertedAtTimestamp": {
      "N": "1697590581.704772"
    }
  },
  {
    "Business ID": "WiH4AnftXMuv6pI4X5Z7_A",
    "Name": "Lahore Restaurant",
    "Address": "1277 Paterson Plank Rd",
    "Coordinates": {
      "Latitude": 40.78977,
      "Longitude": -74.05742
    },
    "Number of Reviews": 109,
    "Rating": 4.0,
    "Zip Code": "07094",
    "CuisineType": {
      "S": "indian"
    },
    "InsertedAtTimestamp": {
      "N": "1697590581.704804"
    }
  },
  {
    "Business ID": "rpzgv0Y6fIT6RcBsxFsrSg",
    "Name": "Paratha Wala",
    "Address": "103-09 Metropolitan Ave",
    "Coordinates": {
      "Latitude": 40.71044,
      "Longitude": -73.84942
    },
    "Number of Reviews": 541,
    "Rating": 4.5,
    "Zip Code": "11375",
    "CuisineType": {
      "S": "indian"
    },
    "InsertedAtTimestamp": {
      "N": "1697590581.704824"
    }
  },
  {
    "Business ID": "DY3RKjbIT3G8URhVEvQ_UA",
    "Name": "Shirley's India",
    "Address": "1 Leroy Pl",
    "Coordinates": {
      "Latitude": 40.90748312207788,
      "Longitude": -73.7823219116449
    },
    "Number of Reviews": 74,
    "Rating": 4.5,
    "Zip Code": "10805",
    "CuisineType": {
      "S": "indian"
    },
    "InsertedAtTimestamp": {
      "N": "1697590581.704843"
    }
  },
  {
    "Business ID": "hfCU-GH8GP6vjAknXUyhKQ",
    "Name": "Cardamom Indian cuisine",
    "Address": "43-45 43rd St",
    "Coordinates": {
      "Latitude": 40.743889234185886,
      "Longitude": -73.92121686092719
    },
    "Number of Reviews": 254,
    "Rating": 4.5,
    "Zip Code": "11104",
    "CuisineType": {
      "S": "indian"
    },
    "InsertedAtTimestamp": {
      "N": "1697590581.704869"
    }
  },
  {
    "Business ID": "1PUcqJywIblaVBH_leywTA",
    "Name": "Inday",
    "Address": "One New York Plz",
    "Coordinates": {
      "Latitude": 40.70209426705473,
      "Longitude": -74.01188010306561
    },
    "Number of Reviews": 11,
    "Rating": 4.5,
    "Zip Code": "10004",
    "CuisineType": {
      "S": "indian"
    },
    "InsertedAtTimestamp": {
      "N": "1697590581.704889"
    }
  },
  {
    "Business ID": "ZqOxAKVZEZTa4XS4zthp3Q",
    "Name": "Bombay Grill",
    "Address": "1176 Bedford Ave",
    "Coordinates": {
      "Latitude": 40.68395749161352,
      "Longitude": -73.9543181843268
    },
    "Number of Reviews": 288,
    "Rating": 4.5,
    "Zip Code": "11216",
    "CuisineType": {
      "S": "indian"
    },
    "InsertedAtTimestamp": {
      "N": "1697590581.704908"
    }
  },
  {
    "Business ID": "7q9Drd3DCB4hw8bPT-zLyA",
    "Name": "Karmasala Indian",
    "Address": "40 Rivington St",
    "Coordinates": {
      "Latitude": 40.721,
      "Longitude": -73.99114
    },
    "Number of Reviews": 1,
    "Rating": 3.0,
    "Zip Code": "10002",
    "CuisineType": {
      "S": "indian"
    },
    "InsertedAtTimestamp": {
      "N": "1697590581.704994"
    }
  },
  {
    "Business ID": "PdzL9svqapSqH4o8bF86Pw",
    "Name": "Punjabi Grocery & Deli",
    "Address": "114 E 1st St",
    "Coordinates": {
      "Latitude": 40.7227225423661,
      "Longitude": -73.9866224576721
    },
    "Number of Reviews": 460,
    "Rating": 4.5,
    "Zip Code": "10009",
    "CuisineType": {
      "S": "indian"
    },
    "InsertedAtTimestamp": {
      "N": "1697590581.705013"
    }
  },
  {
    "Business ID": "hKKDfUPcDX_c-RCWBMOr1w",
    "Name": "Bombay Sandwich Co.",
    "Address": "48 W 27th St",
    "Coordinates": {
      "Latitude": 40.7450715521913,
      "Longitude": -73.990359620218
    },
    "Number of Reviews": 464,
    "Rating": 4.0,
    "Zip Code": "10001",
    "CuisineType": {
      "S": "indian"
    },
    "InsertedAtTimestamp": {
      "N": "1697590581.705033"
    }
  },
  {
    "Business ID": "vksCRTDJO6ZrM_JFRxnG9w",
    "Name": "Desi Junction",
    "Address": "688 10th Ave",
    "Coordinates": {
      "Latitude": 40.763465,
      "Longitude": -73.992317
    },
    "Number of Reviews": 4,
    "Rating": 3.5,
    "Zip Code": "10019",
    "CuisineType": {
      "S": "indian"
    },
    "InsertedAtTimestamp": {
      "N": "1697590581.705052"
    }
  },
  {
    "Business ID": "PAwsjlbOKfLEcJcTHUopzg",
    "Name": "INDAY Express",
    "Address": "133 W 38th St",
    "Coordinates": {
      "Latitude": 40.75350032958211,
      "Longitude": -73.9875741
    },
    "Number of Reviews": 10,
    "Rating": 4.0,
    "Zip Code": "10018",
    "CuisineType": {
      "S": "indian"
    },
    "InsertedAtTimestamp": {
      "N": "1697590581.70507"
    }
  },
  {
    "Business ID": "Ey45ZiAN1TSVmvfM6DVZqA",
    "Name": "Persepolis",
    "Address": "1407 2nd Ave",
    "Coordinates": {
      "Latitude": 40.76984,
      "Longitude": -73.958015
    },
    "Number of Reviews": 527,
    "Rating": 4.0,
    "Zip Code": "10021",
    "CuisineType": {
      "S": "indian"
    },
    "InsertedAtTimestamp": {
      "N": "1697590581.705096"
    }
  },
  {
    "Business ID": "G4Y3yF4UfcCNSj0JFQQVDw",
    "Name": "A Saffron Thread Fresh Indian",
    "Address": "98 Chambers St",
    "Coordinates": {
      "Latitude": 40.71461,
      "Longitude": -74.00774
    },
    "Number of Reviews": 124,
    "Rating": 3.5,
    "Zip Code": "10007",
    "CuisineType": {
      "S": "indian"
    },
    "InsertedAtTimestamp": {
      "N": "1697590581.705114"
    }
  },
  {
    "Business ID": "FqYgcc7Mk2XrYJ10OGgghQ",
    "Name": "Himalayan Curry House Restaurant and Bar",
    "Address": "220 E 53rd St",
    "Coordinates": {
      "Latitude": 40.757199,
      "Longitude": -73.96858
    },
    "Number of Reviews": 83,
    "Rating": 4.0,
    "Zip Code": "10022",
    "CuisineType": {
      "S": "indian"
    },
    "InsertedAtTimestamp": {
      "N": "1697590581.705133"
    }
  },
  {
    "Business ID": "hmNxdAbt0tiGm8_vPdXCSA",
    "Name": "Afghan Kebab House II",
    "Address": "1345 2nd Ave",
    "Coordinates": {
      "Latitude": 40.768066,
      "Longitude": -73.959243
    },
    "Number of Reviews": 229,
    "Rating": 4.0,
    "Zip Code": "10021",
    "CuisineType": {
      "S": "indian"
    },
    "InsertedAtTimestamp": {
      "N": "1697590581.705152"
    }
  },
  {
    "Business ID": "KbCLZOKvPdNY7ptAg0kGxw",
    "Name": "The Kati Roll Company",
    "Address": "229 E 53rd St",
    "Coordinates": {
      "Latitude": 40.757396,
      "Longitude": -73.9681074
    },
    "Number of Reviews": 352,
    "Rating": 3.5,
    "Zip Code": "10022",
    "CuisineType": {
      "S": "indian"
    },
    "InsertedAtTimestamp": {
      "N": "1697590581.70517"
    }
  },
  {
    "Business ID": "ogEtpbCgxv38PyB3ebivqQ",
    "Name": "Yaar Indian Restaurant",
    "Address": "22-55 31st St",
    "Coordinates": {
      "Latitude": 40.774803026853,
      "Longitude": -73.9120166023413
    },
    "Number of Reviews": 452,
    "Rating": 4.5,
    "Zip Code": "11105",
    "CuisineType": {
      "S": "indian"
    },
    "InsertedAtTimestamp": {
      "N": "1697590581.705189"
    }
  },
  {
    "Business ID": "NqnCmOlPIJ_QBQzvZ28djA",
    "Name": "Sapthagiri Taste Of India",
    "Address": "737 Newark Ave",
    "Coordinates": {
      "Latitude": 40.73512018198014,
      "Longitude": -74.06250224217419
    },
    "Number of Reviews": 480,
    "Rating": 3.5,
    "Zip Code": "07306",
    "CuisineType": {
      "S": "indian"
    },
    "InsertedAtTimestamp": {
      "N": "1697590581.705208"
    }
  },
  {
    "Business ID": "TTwPVEHeSeyFMLF6cik8Lw",
    "Name": "Raj Mahal",
    "Address": "322 E 6th St",
    "Coordinates": {
      "Latitude": 40.72684,
      "Longitude": -73.98746
    },
    "Number of Reviews": 220,
    "Rating": 3.0,
    "Zip Code": "10003",
    "CuisineType": {
      "S": "indian"
    },
    "InsertedAtTimestamp": {
      "N": "1697590581.705227"
    }
  },
  {
    "Business ID": "iXrKGRzIZK0pp31mO3nBzA",
    "Name": "Spice & Grill",
    "Address": "441 Myrtle Ave",
    "Coordinates": {
      "Latitude": 40.6933894,
      "Longitude": -73.9679912
    },
    "Number of Reviews": 176,
    "Rating": 4.0,
    "Zip Code": "11205",
    "CuisineType": {
      "S": "indian"
    },
    "InsertedAtTimestamp": {
      "N": "1697590581.705245"
    }
  },
  {
    "Business ID": "hnODPHQIO14uVWIa3cztyA",
    "Name": "Raj's Indian Kitchen",
    "Address": "53 Nassau St",
    "Coordinates": {
      "Latitude": 40.7090336335426,
      "Longitude": -74.00914125144482
    },
    "Number of Reviews": 32,
    "Rating": 4.0,
    "Zip Code": "10038",
    "CuisineType": {
      "S": "indian"
    },
    "InsertedAtTimestamp": {
      "N": "1697590581.70528"
    }
  },
  {
    "Business ID": "yb9o5T88FPUXYOzxyXlUcw",
    "Name": "Ganesh Temple Canteen",
    "Address": "143-09 Holly Ave",
    "Coordinates": {
      "Latitude": 40.75262,
      "Longitude": -73.816511
    },
    "Number of Reviews": 304,
    "Rating": 4.5,
    "Zip Code": "11355",
    "CuisineType": {
      "S": "indian"
    },
    "InsertedAtTimestamp": {
      "N": "1697590581.705308"
    }
  },
  {
    "Business ID": "aFhnb8k6H-wD070vvxt4Fw",
    "Name": "Kababish",
    "Address": "70-64 Broadway",
    "Coordinates": {
      "Latitude": 40.747598,
      "Longitude": -73.893979
    },
    "Number of Reviews": 215,
    "Rating": 3.5,
    "Zip Code": "11372",
    "CuisineType": {
      "S": "indian"
    },
    "InsertedAtTimestamp": {
      "N": "1697590581.705327"
    }
  },
  {
    "Business ID": "0FaLilJs2VN83hOEBcBnPg",
    "Name": "Au Za'atar",
    "Address": "188 Avenue A",
    "Coordinates": {
      "Latitude": 40.728901,
      "Longitude": -73.981185
    },
    "Number of Reviews": 1602,
    "Rating": 4.0,
    "Zip Code": "10009",
    "CuisineType": {
      "S": "indian"
    },
    "InsertedAtTimestamp": {
      "N": "1697590581.705345"
    }
  },
  {
    "Business ID": "T7pKLcv4lr4zysS4uXbEjA",
    "Name": "Achar",
    "Address": "1365 1st Ave",
    "Coordinates": {
      "Latitude": 40.76882440000003,
      "Longitude": -73.95556522009724
    },
    "Number of Reviews": 9,
    "Rating": 3.5,
    "Zip Code": "10021",
    "CuisineType": {
      "S": "indian"
    },
    "InsertedAtTimestamp": {
      "N": "1697590581.705364"
    }
  },
  {
    "Business ID": "TXjvmpAl7otZcuk_7hYZ2g",
    "Name": "Tandoori Place",
    "Address": "2146 Starling Ave",
    "Coordinates": {
      "Latitude": 40.83597304468253,
      "Longitude": -73.8536453
    },
    "Number of Reviews": 84,
    "Rating": 4.5,
    "Zip Code": "10462",
    "CuisineType": {
      "S": "indian"
    },
    "InsertedAtTimestamp": {
      "N": "1697590581.705383"
    }
  },
  {
    "Business ID": "Na55QhymZh3cje8Ac2vCvg",
    "Name": "Nimbooda",
    "Address": "664 Washington Ave",
    "Coordinates": {
      "Latitude": 40.67825,
      "Longitude": -73.96419
    },
    "Number of Reviews": 189,
    "Rating": 4.0,
    "Zip Code": "11238",
    "CuisineType": {
      "S": "indian"
    },
    "InsertedAtTimestamp": {
      "N": "1697590581.705403"
    }
  },
  {
    "Business ID": "CpsnurlPqkUBWwqO69xS7A",
    "Name": "Punjab On Third",
    "Address": "220 3rd Ave",
    "Coordinates": {
      "Latitude": 40.73637,
      "Longitude": -73.98526
    },
    "Number of Reviews": 7,
    "Rating": 3.0,
    "Zip Code": "10003",
    "CuisineType": {
      "S": "indian"
    },
    "InsertedAtTimestamp": {
      "N": "1697590581.705422"
    }
  },
  {
    "Business ID": "eax3yNyNo_0RzgkEWmPkKw",
    "Name": "Gulab Indian Restaurant",
    "Address": "629 Palisade Ave",
    "Coordinates": {
      "Latitude": 40.824056,
      "Longitude": -73.984792
    },
    "Number of Reviews": 17,
    "Rating": 5.0,
    "Zip Code": "07010",
    "CuisineType": {
      "S": "indian"
    },
    "InsertedAtTimestamp": {
      "N": "1697590581.705441"
    }
  },
  {
    "Business ID": "AmsFqdP6BULcAGYEn1EFZg",
    "Name": "Urban Tandoor",
    "Address": "206 Harrison Ave",
    "Coordinates": {
      "Latitude": 40.746238,
      "Longitude": -74.159862
    },
    "Number of Reviews": 155,
    "Rating": 4.0,
    "Zip Code": "07029",
    "CuisineType": {
      "S": "indian"
    },
    "InsertedAtTimestamp": {
      "N": "1697590581.705459"
    }
  },
  {
    "Business ID": "Qz5E5sPtETWD3kwEUsBZpw",
    "Name": "Kabul Kabab House",
    "Address": "42-51 Main St",
    "Coordinates": {
      "Latitude": 40.753857,
      "Longitude": -73.827635
    },
    "Number of Reviews": 540,
    "Rating": 4.0,
    "Zip Code": "11355",
    "CuisineType": {
      "S": "indian"
    },
    "InsertedAtTimestamp": {
      "N": "1697590581.705545"
    }
  },
  {
    "Business ID": "ik7LcD1fkzVbVQ6Sntd4LA",
    "Name": "Indian Spice",
    "Address": "351 7th Ave",
    "Coordinates": {
      "Latitude": 40.6660303077582,
      "Longitude": -73.9819402992725
    },
    "Number of Reviews": 179,
    "Rating": 4.0,
    "Zip Code": "11215",
    "CuisineType": {
      "S": "indian"
    },
    "InsertedAtTimestamp": {
      "N": "1697590581.705575"
    }
  },
  {
    "Business ID": "VSPkVw9gSQx-5v4A6aC_YA",
    "Name": "Manousheh - Bleecker",
    "Address": "193 Bleecker St",
    "Coordinates": {
      "Latitude": 40.729511,
      "Longitude": -74.001275
    },
    "Number of Reviews": 518,
    "Rating": 4.5,
    "Zip Code": "10012",
    "CuisineType": {
      "S": "indian"
    },
    "InsertedAtTimestamp": {
      "N": "1697590581.705604"
    }
  },
  {
    "Business ID": "ExvoimQ4LzY3UWtZ6m6Lgw",
    "Name": "Ravagh Persian Grill",
    "Address": "173 Madison Ave",
    "Coordinates": {
      "Latitude": 40.74726700950392,
      "Longitude": -73.98311794328527
    },
    "Number of Reviews": 984,
    "Rating": 4.0,
    "Zip Code": "10016",
    "CuisineType": {
      "S": "indian"
    },
    "InsertedAtTimestamp": {
      "N": "1697590581.705623"
    }
  },
  {
    "Business ID": "2KCyOxOM5J9glFSpmLqb9Q",
    "Name": "Biryani Pot",
    "Address": "824 Newark Ave",
    "Coordinates": {
      "Latitude": 40.7357829,
      "Longitude": -74.0659607
    },
    "Number of Reviews": 222,
    "Rating": 3.0,
    "Zip Code": "07306",
    "CuisineType": {
      "S": "indian"
    },
    "InsertedAtTimestamp": {
      "N": "1697590581.705642"
    }
  },
  {
    "Business ID": "kPE1RinxVyPbPmdGu9R85A",
    "Name": "Clove Garden of India",
    "Address": "353 3rd St",
    "Coordinates": {
      "Latitude": 40.723668437454315,
      "Longitude": -74.05046512331108
    },
    "Number of Reviews": 148,
    "Rating": 4.5,
    "Zip Code": "07302",
    "CuisineType": {
      "S": "indian"
    },
    "InsertedAtTimestamp": {
      "N": "1697590581.70566"
    }
  },
  {
    "Business ID": "Sl1EfwTm1fd9vOQbo5wQUw",
    "Name": "Bismilla Indian Biryani House",
    "Address": "272 Greenwich St",
    "Coordinates": {
      "Latitude": 40.7155256195018,
      "Longitude": -74.01128458268404
    },
    "Number of Reviews": 2,
    "Rating": 5.0,
    "Zip Code": "10007",
    "CuisineType": {
      "S": "indian"
    },
    "InsertedAtTimestamp": {
      "N": "1697590581.705679"
    }
  },
  {
    "Business ID": "Bb0h5Rs8ugSM2CjulRhfBw",
    "Name": "Spicy Moon East Village",
    "Address": "328 E 6th St",
    "Coordinates": {
      "Latitude": 40.72674,
      "Longitude": -73.98722
    },
    "Number of Reviews": 674,
    "Rating": 4.5,
    "Zip Code": "10003",
    "CuisineType": {
      "S": "indian"
    },
    "InsertedAtTimestamp": {
      "N": "1697590581.705698"
    }
  },
  {
    "Business ID": "IFZ3_d01uflGixWrrD8_gg",
    "Name": "Ariana Afghan Kebab Restaurant",
    "Address": "787 9th Ave",
    "Coordinates": {
      "Latitude": 40.76515,
      "Longitude": -73.98813
    },
    "Number of Reviews": 572,
    "Rating": 4.0,
    "Zip Code": "10019",
    "CuisineType": {
      "S": "indian"
    },
    "InsertedAtTimestamp": {
      "N": "1697590581.705716"
    }
  },
  {
    "Business ID": "BSZ68sheaUGhOIZvaFa-WA",
    "Name": "de tandoori knight",
    "Address": "353 Broadway",
    "Coordinates": {
      "Latitude": 40.707853645213426,
      "Longitude": -73.9556597
    },
    "Number of Reviews": 18,
    "Rating": 4.5,
    "Zip Code": "11211",
    "CuisineType": {
      "S": "indian"
    },
    "InsertedAtTimestamp": {
      "N": "1697590581.705735"
    }
  },
  {
    "Business ID": "ugYhnKrr3Q1TVV15R0EEWQ",
    "Name": "AnTalia NYC",
    "Address": "17 W 45th St",
    "Coordinates": {
      "Latitude": 40.755991,
      "Longitude": -73.980313
    },
    "Number of Reviews": 470,
    "Rating": 4.0,
    "Zip Code": "10036",
    "CuisineType": {
      "S": "indian"
    },
    "InsertedAtTimestamp": {
      "N": "1697590581.705764"
    }
  },
  {
    "Business ID": "gJSX5IDyhjeMjz9IS2DIwQ",
    "Name": "Veggie Heaven",
    "Address": "473 Cedar Ln",
    "Coordinates": {
      "Latitude": 40.889845,
      "Longitude": -74.023091
    },
    "Number of Reviews": 579,
    "Rating": 4.5,
    "Zip Code": "07666",
    "CuisineType": {
      "S": "indian"
    },
    "InsertedAtTimestamp": {
      "N": "1697590581.705783"
    }
  },
  {
    "Business ID": "aaVV388ojMgIayC3cVIEVg",
    "Name": "Mausam Indian Curry N Bites",
    "Address": "76 Market St",
    "Coordinates": {
      "Latitude": 40.84595,
      "Longitude": -74.16121
    },
    "Number of Reviews": 264,
    "Rating": 4.5,
    "Zip Code": "07012",
    "CuisineType": {
      "S": "indian"
    },
    "InsertedAtTimestamp": {
      "N": "1697590581.705803"
    }
  },
  {
    "Business ID": "dJmC6GmMgX3VLSdaLhcJdg",
    "Name": "Tandoor Restaurant",
    "Address": "9524 Queens Blvd",
    "Coordinates": {
      "Latitude": 40.730351,
      "Longitude": -73.863868
    },
    "Number of Reviews": 232,
    "Rating": 3.5,
    "Zip Code": "11374",
    "CuisineType": {
      "S": "indian"
    },
    "InsertedAtTimestamp": {
      "N": "1697590581.705822"
    }
  },
  {
    "Business ID": "cJfbydHniqWsGL2VHVDHEg",
    "Name": "Bombay Grill",
    "Address": "8716 3rd Ave",
    "Coordinates": {
      "Latitude": 40.62238,
      "Longitude": -74.03183
    },
    "Number of Reviews": 272,
    "Rating": 4.0,
    "Zip Code": "11209",
    "CuisineType": {
      "S": "indian"
    },
    "InsertedAtTimestamp": {
      "N": "1697590581.705841"
    }
  },
  {
    "Business ID": "vnf1WSV7dTmOeOkIJ46hiw",
    "Name": "Curry King",
    "Address": "942 Columbus Ave",
    "Coordinates": {
      "Latitude": 40.799566279368,
      "Longitude": -73.9629824840441
    },
    "Number of Reviews": 86,
    "Rating": 2.5,
    "Zip Code": "10025",
    "CuisineType": {
      "S": "indian"
    },
    "InsertedAtTimestamp": {
      "N": "1697590581.70586"
    }
  },
  {
    "Business ID": "VvIzNbkl4PDPzutZdxWCJw",
    "Name": "Ittadi Garden & Grill",
    "Address": "7307 37th Rd",
    "Coordinates": {
      "Latitude": 40.7472744,
      "Longitude": -73.8922265
    },
    "Number of Reviews": 79,
    "Rating": 3.5,
    "Zip Code": "11372",
    "CuisineType": {
      "S": "indian"
    },
    "InsertedAtTimestamp": {
      "N": "1697590581.705879"
    }
  },
  {
    "Business ID": "oSMFe-10TyH40NIXG0Zahw",
    "Name": "Vaibhav Indian Spice Journey",
    "Address": "737 Newark Ave",
    "Coordinates": {
      "Latitude": 40.73503,
      "Longitude": -74.0624069
    },
    "Number of Reviews": 438,
    "Rating": 3.5,
    "Zip Code": "07306",
    "CuisineType": {
      "S": "indian"
    },
    "InsertedAtTimestamp": {
      "N": "1697590581.705898"
    }
  },
  {
    "Business ID": "fiPKqhW7BGq3aURuLPQn9Q",
    "Name": "Namkeen",
    "Address": "338 Bedford Ave",
    "Coordinates": {
      "Latitude": 40.71285,
      "Longitude": -73.96248
    },
    "Number of Reviews": 115,
    "Rating": 4.0,
    "Zip Code": "11249",
    "CuisineType": {
      "S": "indian"
    },
    "InsertedAtTimestamp": {
      "N": "1697590581.705917"
    }
  },
  {
    "Business ID": "0Z6VTfFsesUSrN5kkVJ5Zw",
    "Name": "Flames Indian Aroma",
    "Address": "165 East 106th St",
    "Coordinates": {
      "Latitude": 40.79197,
      "Longitude": -73.94522
    },
    "Number of Reviews": 18,
    "Rating": 4.0,
    "Zip Code": "10029",
    "CuisineType": {
      "S": "indian"
    },
    "InsertedAtTimestamp": {
      "N": "1697590581.705935"
    }
  },
  {
    "Business ID": "k1XZsff99d2JyX_jLwCaAA",
    "Name": "Taj Mahal Indian Restaurant",
    "Address": "7315 3rd Ave",
    "Coordinates": {
      "Latitude": 40.63239283761084,
      "Longitude": -74.0271556377411
    },
    "Number of Reviews": 399,
    "Rating": 4.0,
    "Zip Code": "11209",
    "CuisineType": {
      "S": "indian"
    },
    "InsertedAtTimestamp": {
      "N": "1697590581.705953"
    }
  },
  {
    "Business ID": "uPW_isMEB92IDrX04pLK1g",
    "Name": "Delhi Heights",
    "Address": "37-66 74th St",
    "Coordinates": {
      "Latitude": 40.7471,
      "Longitude": -73.89176
    },